     3.02           OBSERVATION DATA    M: Mixed            RINEX VERSION / TYPE
RTKCONV 2.4.3 b29                       20171010 113534 UTC PGM / RUN BY / DATE 
log: C:\Users\hosomi.OPTIPLEX9020\Desktop\TIME SPAN\m8p.ub  COMMENT             
format: u-blox                                              COMMENT             
                                                            MARKER NAME         
                                                            MARKER NUMBER       
                                                            MARKER TYPE         
                                                            OBSERVER / AGENCY   
                                                            REC # / TYPE / VERS 
                                                            ANT # / TYPE        
 -3961930.1709  3348919.2715  3698185.8058                  APPROX POSITION XYZ 
        0.0000        0.0000        0.0000                  ANTENNA: DELTA H/E/N
G    4 C1C L1C D1C S1C                                      SYS / # / OBS TYPES 
R    4 C1C L1C D1C S1C                                      SYS / # / OBS TYPES 
E    4 C1C L1C D1C S1C                                      SYS / # / OBS TYPES 
J    4 C1C L1C D1C S1C                                      SYS / # / OBS TYPES 
S    4 C1C L1C D1C S1C                                      SYS / # / OBS TYPES 
C    4 C1I L1I D1I S1I                                      SYS / # / OBS TYPES 
  2017    10    10    10    23   27.9980000     GPS         TIME OF FIRST OBS   
  2017    10    10    10    30   36.9990000     GPS         TIME OF LAST OBS    
G                                                           SYS / PHASE SHIFT   
R                                                           SYS / PHASE SHIFT   
E                                                           SYS / PHASE SHIFT   
J                                                           SYS / PHASE SHIFT   
S                                                           SYS / PHASE SHIFT   
C                                                           SYS / PHASE SHIFT   
  0                                                         GLONASS SLOT / FRQ #
 C1C    0.000 C1P    0.000 C2C    0.000 C2P    0.000        GLONASS COD/PHS/BIS 
                                                            END OF HEADER       
> 2017 10 10 10 23 27.9980000  0 15                     
G24  19614059.014   103072573.711        -466.236          50.000  
G15  20491805.489   107685166.098       -1622.904          49.000  
G20  20540340.016   107940213.008       -2961.014          47.000  
G18  20993673.752   110322501.334        1503.152          47.000  
G13  22521607.514   118351848.428       -2773.187          36.000  
C 3  37426996.776   194892176.265        -509.037          41.000  
G12  22360636.436   117505938.0962       2951.065          47.000  
G10  23006928.215   120902235.128        2753.575          43.000  
C 6  35997218.263   187446904.503         -19.224          42.000  
C 1  36815731.737   191709137.256        -488.561          43.000  
C 4  37071449.471   193040731.806        -514.382          43.000  
J 1  37221667.352   195601183.292          88.511          45.000  
J 2  36951579.399   194181862.887       -1161.011          45.000  
G25  24970952.874                        3273.055          26.000  
G21  22800925.672   119819659.964       -1989.054          45.000  
> 2017 10 10 10 23 28.1980000  0 15                     
G24  19614076.813   103072666.961        -466.393          50.000  
G15  20491867.298   107685490.719       -1623.185          49.000  
G20  20540452.552   107940805.275       -2961.609          47.000  
G18  20993616.559   110322200.725        1502.864          47.000  
G13  22521713.280   118352403.108       -2773.566          36.000  
C 3  37427016.337   194892278.070        -508.859          41.000  
G12  22360524.065   117505347.9612       2950.671          47.000  
G10  23006823.452   120901684.383        2753.549          43.000  
C 6  35997219.014   187446908.359         -19.477          42.000  
C 1  36815750.601   191709235.026        -489.045          43.000  
C 4  37071469.250   193040834.718        -514.667          43.000  
J 1  37221663.844   195601165.611          88.229          45.000  
J 2  36951623.514   194182095.096       -1161.230          45.000  
G25  24970827.834                        3272.793          26.000  
G21  22801001.415   119820057.753       -1989.170          45.000  
> 2017 10 10 10 23 28.3980000  0 15                     
G24  19614094.534   103072760.246        -466.308          50.000  
G15  20491929.011   107685815.342       -1622.953          48.000  
G20  20540565.254   107941397.540       -2961.378          47.000  
G18  20993559.531   110321900.124        1503.128          47.000  
G13  22521818.897   118352957.779       -2773.111          36.000  
C 3  37427036.030   194892379.908        -508.969          41.000  
G12  22360411.834   117504757.8222       2950.610          47.000  
G10  23006718.585   120901133.660        2753.847          43.000  
C 6  35997219.773   187446912.198         -18.781          42.000  
C 1  36815769.369   191709332.782        -488.914          43.000  
C 4  37071489.021   193040937.628        -514.562          43.000  
J 1  37221660.320   195601147.919          88.563          45.000  
J 2  36951667.680   194182327.306       -1160.955          45.000  
G25  24970702.864   131221933.6322       3273.461          27.000  
G21  22801077.253   119820455.575       -1989.063          45.000  
> 2017 10 10 10 23 28.5980000  0 15                     
G24  19614112.359   103072853.562        -466.646          50.000  
G15  20491990.750   107686139.999       -1623.236          49.000  
G20  20540677.869   107941989.853       -2961.642          47.000  
G18  20993502.268   110321599.574        1502.663          47.000  
G13  22521924.340   118353512.489       -2773.636          36.000  
C 3  37427055.504   194892481.749        -509.313          41.000  
G12  22360299.647   117504167.7082       2950.590          47.000  
G10  23006613.727   120900582.973        2753.312          43.000  
C 6  35997220.698   187446916.091         -19.229          42.000  
C 1  36815788.372   191709430.544        -488.726          43.000  
C 4  37071508.688   193041040.557        -514.793          43.000  
J 1  37221656.925   195601130.256          88.367          45.000  
J 2  36951711.925   194182559.537       -1161.173          45.000  
G25  24970578.942   131221279.0752       3272.651          27.000  
G21  22801153.022   119820853.419       -1989.222          45.000  
> 2017 10 10 10 23 28.7980000  0 16                     
G24  19614130.080   103072946.921        -466.841          50.000  
G15  20492052.480   107686464.680       -1623.269          48.000  
G20  20540790.493   107942582.199       -2961.698          47.000  
G18  20993445.215   110321299.044        1502.610          47.000  
G13  22522029.984   118354067.228       -2773.869          36.000  
C 3  37427075.092   194892583.606        -509.437          41.000  
G12  22360187.364   117503577.6282       2950.528          47.000  
G10  23006508.973   120900032.292        2753.473          43.000  
C 6  35997221.465   187446919.995         -19.428          42.000  
C 1  36815807.183   191709528.350        -488.771          43.000  
C 4  37071528.433   193041143.507        -514.763          43.000  
G 5  24419582.253                       -4075.883          22.000  
J 1  37221653.505   195601112.613          88.213          45.000  
J 2  36951756.039   194182791.795       -1161.217          45.000  
G25  24970454.827   131220624.5532       3272.489          27.000  
G21  22801228.782   119821251.305       -1989.423          45.000  
> 2017 10 10 10 23 28.9980000  0 15                     
G24  19614147.949   103073040.333        -467.303          50.000  
G15  20492114.306   107686789.421       -1623.810          49.000  
G20  20540903.248   107943174.600       -2962.096          47.000  
G18  20993388.196   110320998.573        1502.138          47.000  
G13  22522135.427   118354622.002       -2774.498          36.000  
C 3  37427094.619   194892685.499        -509.579          41.000  
G12  22360074.975   117502987.5902       2950.063          47.000  
G10  23006404.010   120899481.663        2753.149          43.000  
C 6  35997222.286   187446923.922         -19.637          42.000  
C 1  36815826.099   191709626.181        -489.268          43.000  
C 4  37071548.169   193041246.494        -515.033          43.000  
J 1  37221650.216   195601095.007          87.987          45.000  
J 2  36951800.153   194183024.088       -1161.649          45.000  
G25  24970328.234   131219969.9852       3272.711          27.000  
G21  22801304.481   119821649.235       -1989.803          45.000  
> 2017 10 10 10 23 29.1980000  0 15                     
G24  19614165.800   103073133.739        -466.874          50.000  
G15  20492176.019   107687114.131       -1623.389          49.000  
G20  20541015.880   107943767.006       -2961.924          47.000  
G18  20993330.977   110320698.084        1502.444          47.000  
G13  22522241.149   118355176.742       -2773.620          36.000  
C 3  37427114.233   194892787.382        -509.355          41.000  
G12  22359962.727   117502397.5342       2950.449          47.000  
G10  23006299.248   120898931.027        2753.240          43.000  
C 6  35997223.080   187446927.830         -19.530          42.000  
C 1  36815844.946   191709723.999        -489.089          43.000  
C 4  37071568.045   193041349.443        -514.559          43.000  
J 1  37221646.804   195601077.373          88.308          45.000  
J 2  36951844.355   194183256.352       -1161.113          45.000  
G25  24970202.218   131219315.4362       3272.851          27.000  
G21  22801380.241   119822047.152       -1989.261          45.000  
> 2017 10 10 10 23 29.3980000  0 15                     
G24  19614183.547   103073227.154        -466.905          50.000  
G15  20492237.819   107687438.840       -1623.349          49.000  
G20  20541128.591   107944359.403       -2961.865          47.000  
G18  20993273.836   110320397.598        1502.402          47.000  
G13  22522346.766   118355731.482       -2773.803          36.000  
C 3  37427133.804   194892889.224        -509.140          41.000  
G12  22359850.443   117501807.4692       2950.504          47.000  
G10  23006194.424   120898380.365        2753.554          43.000  
C 6  35997223.743   187446931.707         -19.150          42.000  
C 1  36815863.757   191709821.758        -488.600          43.000  
C 4  37071587.851   193041452.398        -514.626          43.000  
J 1  37221643.419   195601059.721          88.569          45.000  
J 2  36951888.390   194183488.611       -1161.135          45.000  
G25  24970076.751   131218660.8362       3273.057          27.000  
G21  22801455.993   119822445.079       -1989.451          45.000  
> 2017 10 10 10 23 29.5980000  0 15                     
G24  19614201.233   103073320.598        -467.148          50.000  
G15  20492299.575   107687763.570       -1623.582          49.000  
G20  20541241.276   107944951.830       -2962.130          47.000  
G18  20993216.669   110320097.134        1502.244          47.000  
G13  22522452.410   118356286.236       -2773.865          36.000  
C 3  37427153.226   194892991.089        -509.462          41.000  
G12  22359738.177   117501217.4212       2950.264          47.000  
G10  23006089.644   120897829.722        2753.247          43.000  
C 6  35997224.414   187446935.610         -19.374          42.000  
C 1  36815882.551   191709919.558        -488.783          43.000  
C 4  37071607.604   193041555.335        -514.708          43.000  
J 1  37221640.016   195601042.081          88.467          45.000  
J 2  36951932.635   194183720.868       -1161.304          45.000  
G25  24969952.636   131218006.2492       3272.984          27.000  
G21  22801531.727   119822843.015       -1989.709          45.000  
> 2017 10 10 10 23 29.7980000  0 15                     
G24  19614219.023   103073414.036        -467.444          50.000  
G15  20492361.471   107688088.276       -1623.712          49.000  
G20  20541354.065   107945544.242       -2962.257          47.000  
G18  20993159.677   110319796.652        1502.121          47.000  
G13  22522558.010   118356840.938       -2773.873          36.000  
C 3  37427172.761   194893092.904        -509.169          41.000  
G12  22359625.903   117500627.3482       2950.183          47.000  
G10  23005984.856   120897279.061        2753.189          43.000  
C 6  35997225.069   187446939.467         -19.623          42.000  
C 1  36815901.188   191710017.334        -489.121          43.000  
C 4  37071627.358   193041658.260        -514.875          43.000  
J 1  37221636.578   195601024.429          88.218          45.000  
J 2  36951976.776   194183953.105       -1161.350          45.000  
G25  24969827.823   131217351.6202       3273.443          27.000  
G21  22801607.452   119823240.945       -1989.976          45.000  
> 2017 10 10 10 23 29.9980000  0 15                     
G24  19614236.788   103073507.523        -467.414          50.000  
G15  20492423.280   107688413.026       -1623.748          49.000  
G20  20541466.706   107946136.708       -2962.363          47.000  
G18  20993102.519   110319496.204        1502.400          47.000  
G13  22522663.654   118357395.694       -2773.545          37.000  
C 3  37427192.209   194893194.766        -509.177          41.000  
G12  22359513.593   117500037.3142       2950.226          47.000  
G10  23005880.041   120896728.442        2753.218          43.000  
C 6  35997225.872   187446943.353         -19.300          42.000  
C 1  36815920.086   191710115.121        -488.958          43.000  
C 4  37071647.094   193041761.204        -514.696          43.000  
J 1  37221633.280   195601006.790          88.276          45.000  
J 2  36952021.030   194184185.370       -1161.248          45.000  
G25  24969703.377   131216697.0272       3273.129          27.000  
G21  22801683.195   119823638.903       -1989.641          45.000  
> 2017 10 10 10 23 30.1980000  0 15                     
G24  19614254.439   103073601.022        -467.456          50.000  
G15  20492485.088   107688737.779       -1623.783          49.000  
G20  20541579.444   107946729.179       -2962.236          47.000  
G18  20993045.291   110319195.793        1502.124          47.000  
G13  22522769.201   118357950.442       -2773.400          37.000  
C 3  37427211.789   194893296.611        -509.049          41.000  
G12  22359401.345   117499447.2822       2950.220          47.000  
G10  23005775.122   120896177.805        2753.315          43.000  
C 6  35997226.578   187446947.253         -19.576          42.000  
C 1  36815938.994   191710212.902        -488.725          43.000  
C 4  37071666.830   193041864.137        -514.492          43.000  
J 1  37221630.043   195600989.151          88.251          45.000  
J 2  36952065.327   194184417.626       -1161.044          45.000  
G25  24969577.884   131216042.4532       3272.878          27.000  
G21  22801759.042   119824036.886       -1989.720          45.000  
> 2017 10 10 10 23 30.3980000  0 15                     
G24  19614272.177   103073694.571        -467.750          50.000  
G15  20492546.792   107689062.564       -1624.028          49.000  
G20  20541692.137   107947321.703       -2962.677          47.000  
G18  20992988.194   110318895.418        1501.658          47.000  
G13  22522874.845   118358505.248       -2773.986          37.000  
C 3  37427231.368   194893398.494        -509.401          41.000  
G12  22359289.053   117498857.2842       2950.012          47.000  
G10  23005670.385   120895627.227        2752.880          43.000  
C 6  35997227.320   187446951.155         -19.611          42.000  
C 1  36815957.840   191710310.720        -488.990          43.000  
C 4  37071686.698   193041967.119        -514.742          43.000  
J 1  37221626.771   195600971.534          88.141          45.000  
J 2  36952109.546   194184649.920       -1161.348          45.000  
G25  24969453.272   131215387.8492       3272.818          27.000  
G21  22801834.706   119824434.918       -1990.137          45.000  
> 2017 10 10 10 23 30.5980000  0 15                     
G24  19614289.985   103073788.119        -467.699          50.000  
G15  20492608.575   107689387.334       -1623.871          49.000  
G20  20541804.892   107947914.220       -2962.595          47.000  
G18  20992930.966   110318595.026        1501.949          47.000  
G13  22522980.331   118359060.011       -2773.783          37.000  
C 3  37427250.912   194893500.353        -509.435          41.000  
G12  22359176.717   117498267.2722       2950.074          47.000  
G10  23005565.728   120895076.618        2753.132          43.000  
C 6  35997228.018   187446955.019         -18.874          42.000  
C 1  36815976.834   191710408.522        -488.915          43.000  
C 4  37071706.425   193042070.063        -514.628          43.000  
J 1  37221623.386   195600953.898          88.398          45.000  
J 2  36952153.573   194184882.194       -1161.224          45.000  
G25  24969328.433   131214733.2252       3273.156          27.000  
G21  22801910.615   119824832.930       -1990.199          45.000  
> 2017 10 10 10 23 30.7980000  0 15                     
G24  19614307.740   103073881.644        -467.822          50.000  
G15  20492670.532   107689712.081       -1623.741          49.000  
G20  20541917.629   107948506.711       -2962.688          47.000  
G18  20992873.755   110318294.611        1501.935          47.000  
G13  22523085.931   118359614.741       -2773.834          37.000  
C 3  37427270.543   194893602.172        -509.355          41.000  
G12  22359064.477   117497677.2302       2950.104          47.000  
G10  23005460.983   120894525.983        2753.062          43.000  
C 6  35997228.664   187446958.889         -19.240          42.000  
C 1  36815995.567   191710506.280        -489.034          43.000  
C 4  37071726.231   193042172.984        -514.801          43.000  
J 1  37221620.044   195600936.233          88.334          45.000  
J 2  36952197.818   194185114.425       -1161.236          45.000  
G25  24969202.983   131214078.5892       3273.135          27.000  
G21  22801986.392   119825230.913       -1990.091          45.000  
> 2017 10 10 10 23 30.9980000  0 15                     
G24  19614325.531   103073975.192        -467.875          50.000  
G15  20492732.297   107690036.830       -1623.703          49.000  
G20  20542030.453   107949099.216       -2962.501          47.000  
G18  20992816.580   110317994.191        1502.233          47.000  
G13  22523191.636   118360169.462       -2773.648          37.000  
C 3  37427290.114   194893703.980        -509.227          41.000  
G12  22358952.211   117497087.1842       2950.229          47.000  
G10  23005356.125   120893975.346        2753.161          43.000  
C 6  35997229.396   187446962.730         -19.209          42.000  
C 1  36816014.195   191710604.025        -488.967          43.000  
C 4  37071746.133   193042275.878        -514.436          43.000  
J 1  37221616.511   195600918.555          88.425          45.000  
J 2  36952242.037   194185346.658       -1161.141          45.000  
G25  24969077.656   131213423.9372       3273.140          27.000  
G21  22802062.187   119825628.907       -1989.899          45.000  
> 2017 10 10 10 23 31.1980000  0 15                     
G24  19614343.269   103074068.774        -467.901          50.000  
G15  20492794.210   107690361.608       -1623.959          49.000  
G20  20542143.173   107949691.766       -2962.762          47.000  
G18  20992759.395   110317693.828        1501.860          47.000  
G13  22523297.201   118360724.225       -2773.566          37.000  
C 3  37427309.667   194893805.814        -509.028          41.000  
G12  22358839.936   117496497.1642       2950.228          47.000  
G10  23005251.441   120893424.723        2753.266          43.000  
C 6  35997230.033   187446966.595         -19.158          42.000  
C 1  36816033.129   191710701.777        -488.352          43.000  
C 4  37071765.756   193042378.795        -514.476          43.000  
J 1  37221613.178   195600900.917          88.219          45.000  
J 2  36952286.229   194185578.907       -1161.207          45.000  
G25  24968953.236   131212769.2652       3273.128          27.000  
G21  22802137.939   119826026.939       -1990.131          45.000  
> 2017 10 10 10 23 31.3980000  0 15                     
G24  19614361.059   103074162.337        -467.711          50.000  
G15  20492856.080   107690686.350       -1623.546          49.000  
G20  20542255.945   107950284.288       -2962.513          47.000  
G18  20992702.185   110317393.432        1502.128          47.000  
G13  22523402.731   118361278.928       -2773.342          37.000  
C 3  37427329.229   194893907.589        -508.619          41.000  
G12  22358727.574   117495906.614        2950.413          47.000  
G10  23005146.556   120892874.089        2753.451          43.000  
C 6  35997230.653   187446970.416         -19.049          42.000  
C 1  36816051.923   191710799.519        -488.535          43.000  
C 4  37071785.588   193042481.673        -514.135          43.000  
J 1  37221609.819   195600883.212          88.627          45.000  
J 2  36952330.535   194185811.117       -1160.864          45.000  
G25  24968829.287   131212114.068        3273.743          27.000  
G21  22802213.751   119826424.945       -1989.984          45.000  
> 2017 10 10 10 23 31.5980000  0 15                     
G24  19614378.710   103074255.927        -468.119          50.000  
G15  20492917.871   107691011.119       -1623.922          49.000  
G20  20542368.726   107950876.834       -2962.872          47.000  
G18  20992645.026   110317093.057        1501.774          47.000  
G13  22523508.375   118361833.638       -2773.041          37.000  
C 3  37427348.694   194894009.380        -508.890          41.000  
G12  22358615.239   117495316.578        2950.195          47.000  
G10  23005041.611   120892323.460        2753.119          43.000  
C 6  35997231.290   187446974.233         -19.033          42.000  
C 1  36816070.629   191710897.237        -488.741          43.000  
C 4  37071805.333   193042584.557        -514.268          43.000  
J 1  37221606.451   195600865.526          88.371          45.000  
J 2  36952374.745   194186043.340       -1161.166          45.000  
G25  24968703.480   131211459.328        3273.471          27.000  
G21  22802289.424   119826822.956       -1990.002          45.000  
> 2017 10 10 10 23 31.7980000  0 15                     
G24  19614396.510   103074349.521        -467.882          50.000  
G15  20492979.645   107691335.875       -1623.646          49.000  
G20  20542481.437   107951469.378       -2962.537          47.000  
G18  20992587.807   110316792.680        1502.089          47.000  
G13  22523613.958   118362388.384       -2773.332          37.000  
C 3  37427368.273   194894111.166        -508.858          41.000  
G12  22358502.920   117494726.539        2950.409          47.000  
G10  23004936.892   120891772.824        2753.198          43.000  
C 6  35997232.058   187446978.049         -19.005          42.000  
C 1  36816089.484   191710994.941        -488.055          43.000  
C 4  37071825.104   193042687.435        -514.305          43.000  
J 1  37221603.126   195600847.819          88.776          45.000  
J 2  36952418.956   194186275.538       -1160.861          45.000  
G25  24968578.100   131210804.646        3273.686          27.000  
G21  22802365.167   119827220.990       -1990.001          45.000  
> 2017 10 10 10 23 31.9980000  0 15                     
G24  19614414.230   103074443.112        -467.995          50.000  
G15  20493041.427   107691660.618       -1623.720          49.000  
G20  20542594.148   107952061.924       -2962.748          47.000  
G18  20992530.570   110316492.290        1501.967          47.000  
G13  22523719.523   118362943.081       -2773.595          37.000  
C 3  37427387.783   194894212.910        -508.577          41.000  
G12  22358390.698   117494136.476        2950.215          47.000  
G10  23004832.077   120891222.159        2753.288          43.000  
C 6  35997232.747   187446981.827         -18.974          42.000  
C 1  36816108.287   191711092.642        -488.264          43.000  
C 4  37071844.831   193042790.284        -514.532          43.000  
J 1  37221599.741   195600830.099          88.589          45.000  
J 2  36952463.052   194186507.718       -1160.840          45.000  
G25  24968453.811   131210149.891        3273.707          27.000  
G21  22802440.848   119827619.005       -1990.168          45.000  
> 2017 10 10 10 23 32.1980000  0 15                     
G24  19614432.021   103074536.715        -468.087          50.000  
G15  20493103.253   107691985.356       -1623.699          49.000  
G20  20542706.998   107952654.472       -2962.772          47.000  
G18  20992473.404   110316191.915        1501.849          47.000  
G13  22523825.140   118363497.777       -2773.427          37.000  
C 3  37427407.371   194894314.651        -508.631          41.000  
G12  22358278.406   117493546.411        2950.359          47.000  
G10  23004727.323   120890671.516        2753.173          43.000  
C 6  35997233.506   187446985.593         -18.722          42.000  
C 1  36816127.020   191711190.324        -488.432          43.000  
C 4  37071864.594   193042893.110        -514.242          43.000  
J 1  37221596.364   195600812.369          88.659          45.000  
J 2  36952507.097   194186739.890       -1160.732          45.000  
G25  24968328.850   131209495.109        3273.871          27.000  
G21  22802516.565   119828017.018       -1990.138          45.000  
> 2017 10 10 10 23 32.3980000  0 15                     
G24  19614449.907   103074630.358        -468.288          50.000  
G15  20493165.106   107692310.134       -1623.771          49.000  
G20  20542819.735   107953247.068       -2962.973          47.000  
G18  20992416.114   110315891.578        1501.522          47.000  
G13  22523930.679   118364052.501       -2773.578          37.000  
C 3  37427426.863   194894416.416        -508.886          41.000  
G12  22358166.044   117492956.378        2950.260          47.000  
G10  23004622.509   120890120.872        2753.272          43.000  
C 6  35997234.187   187446989.391         -19.004          42.000  
C 1  36816145.857   191711288.012        -488.259          43.000  
C 4  37071884.478   193042995.959        -514.073          43.000  
J 1  37221592.997   195600794.653          88.625          45.000  
J 2  36952551.228   194186972.086       -1160.873          45.000  
G25  24968203.574   131208840.371        3273.907          27.000  
G21  22802592.264   119828415.074       -1990.210          45.000  
> 2017 10 10 10 23 32.5980000  0 15                     
G24  19614467.820   103074724.039        -468.533          50.000  
G15  20493226.941   107692634.942       -1624.076          49.000  
G20  20542932.603   107953839.689       -2963.080          47.000  
G18  20992359.026   110315591.257        1501.555          47.000  
G13  22524036.270   118364607.250       -2773.823          37.000  
C 3  37427446.529   194894518.197        -508.945          41.000  
G12  22358053.813   117492366.371        2949.985          47.000  
G10  23004517.703   120889570.273        2753.212          43.000  
C 6  35997234.919   187446993.206         -19.167          42.000  
C 1  36816164.677   191711385.743        -488.670          43.000  
C 4  37071904.328   193043098.833        -514.293          43.000  
J 1  37221589.585   195600776.967          88.352          45.000  
J 2  36952595.482   194187204.306       -1161.085          45.000  
G25  24968079.154   131208185.607        3273.526          27.000  
G21  22802667.998   119828813.164       -1990.516          45.000  
> 2017 10 10 10 23 32.7980000  0 15                     
G24  19614485.637   103074817.731        -468.570          50.000  
G15  20493288.924   107692959.755       -1624.203          49.000  
G20  20543045.349   107954432.337       -2963.277          47.000  
G18  20992301.798   110315290.964        1501.386          47.000  
G13  22524141.783   118365161.994       -2773.811          37.000  
C 3  37427465.951   194894619.973        -509.155          41.000  
G12  22357941.555   117491776.371        2950.006          47.000  
G10  23004412.949   120889019.691        2752.652          43.000  
C 6  35997235.644   187446996.994         -19.083          42.000  
C 1  36816183.244   191711483.447        -488.533          43.000  
C 4  37071923.951   193043201.701        -514.364          43.000  
J 1  37221586.182   195600759.273          88.414          45.000  
J 2  36952639.692   194187436.523       -1161.106          45.000  
G25  24967954.813   131207530.911        3273.723          27.000  
G21  22802743.723   119829211.264       -1990.670          45.000  
> 2017 10 10 10 23 32.9980000  0 15                     
G24  19614503.453   103074911.467        -468.753          50.000  
G15  20493350.732   107693284.587       -1624.201          49.000  
G20  20543158.051   107955025.015       -2963.421          47.000  
G18  20992244.640   110314990.709        1501.240          47.000  
G13  22524247.278   118365716.756       -2773.773          37.000  
C 3  37427485.731   194894721.780        -509.204          41.000  
G12  22357829.342   117491186.390        2949.863          47.000  
G10  23004308.195   120888469.109        2752.824          43.000  
C 6  35997236.368   187447000.825         -19.080          42.000  
C 1  36816201.995   191711581.186        -488.654          43.000  
C 4  37071943.800   193043304.588        -514.500          43.000  
J 1  37221582.710   195600741.595          88.338          45.000  
J 2  36952683.876   194187668.759       -1161.208          45.000  
G25  24967830.620   131206876.132        3273.728          27.000  
G21  22802819.509   119829609.394       -1990.755          45.000  
> 2017 10 10 10 23 33.1980000  0 15                     
G24  19614521.279   103075005.225        -468.868          50.000  
G15  20493412.541   107693609.448       -1624.384          49.000  
G20  20543270.727   107955617.720       -2963.569          47.000  
G18  20992187.456   110314690.463        1501.013          47.000  
G13  22524352.878   118366271.528       -2773.909          37.000  
C 3  37427505.240   194894823.576        -509.116          41.000  
G12  22357717.050   117490596.436        2949.677          47.000  
G10  23004203.363   120887918.556        2752.610          43.000  
C 6  35997237.240   187447004.648         -19.106          42.000  
C 1  36816220.788   191711678.927        -488.835          43.000  
C 4  37071963.432   193043407.484        -514.608          43.000  
J 1  37221579.394   195600723.932          88.232          44.000  
J 2  36952728.086   194187900.999       -1161.234          45.000  
G25  24967705.885   131206221.451        3273.243          27.000  
G21  22802895.322   119830007.540       -1990.865          45.000  
> 2017 10 10 10 23 33.3980000  0 15                     
G24  19614538.973   103075099.032        -469.256          50.000  
G15  20493474.420   107693934.334       -1624.750          49.000  
G20  20543383.438   107956210.466       -2963.997          47.000  
G18  20992130.324   110314390.257        1500.740          47.000  
G13  22524458.531   118366826.326       -2773.930          37.000  
C 3  37427524.776   194894925.395        -509.325          41.000  
G12  22357604.740   117490006.495        2949.519          47.000  
G10  23004098.653   120887368.017        2752.470          43.000  
C 6  35997237.991   187447008.510         -19.532          42.000  
C 1  36816239.582   191711776.679        -489.012          43.000  
C 4  37071983.264   193043510.392        -514.629          43.000  
J 1  37221576.026   195600706.293          88.110          44.000  
J 2  36952772.209   194188133.271       -1161.581          45.000  
G25  24967583.245   131205566.633        3274.134          27.000  
G21  22802971.064   119830405.732       -1991.220          45.000  
> 2017 10 10 10 23 33.5980000  0 15                     
G24  19614556.807   103075192.879        -469.432          50.000  
G15  20493536.263   107694259.255       -1624.735          49.000  
G20  20543496.184   107956803.251       -2964.069          47.000  
G18  20992073.322   110314090.086        1500.623          47.000  
G13  22524564.096   118367381.161       -2773.944          37.000  
C 3  37427544.241   194895027.250        -509.363          41.000  
G12  22357492.422   117489416.596        2949.330          47.000  
G10  23003993.952   120886817.518        2752.360          43.000  
C 6  35997238.863   187447012.382         -19.566          42.000  
C 1  36816258.350   191711874.452        -488.721          43.000  
C 4  37072003.140   193043613.339        -514.779          43.000  
J 1  37221572.641   195600688.675          87.902          44.000  
J 2  36952816.445   194188365.558       -1161.596          45.000  
G25  24967457.761   131204912.047        3272.834          27.000  
G21  22803046.659   119830803.958       -1991.385          45.000  
> 2017 10 10 10 23 33.7980000  0 15                     
G24  19614574.694   103075286.748        -469.249          50.000  
G15  20493598.220   107694584.183       -1624.620          49.000  
G20  20543609.096   107957396.046       -2963.886          47.000  
G18  20992016.138   110313789.937        1500.838          47.000  
G13  22524669.635   118367936.011       -2774.081          37.000  
C 3  37427563.821   194895129.077        -509.125          41.000  
G12  22357380.147   117488826.692        2949.698          47.000  
G10  23003889.163   120886267.020        2752.563          43.000  
C 6  35997239.640   187447016.243         -19.074          42.000  
C 1  36816277.188   191711972.244        -488.764          43.000  
C 4  37072022.885   193043716.272        -514.661          43.000  
J 1  37221569.308   195600671.053          88.083          44.000  
J 2  36952860.682   194188597.846       -1161.319          45.000  
G25  24967332.547   131204257.275        3273.641          27.000  
G21  22803122.480   119831202.188       -1991.144          45.000  
> 2017 10 10 10 23 33.9980000  0 15                     
G24  19614592.572   103075380.635        -469.609          50.000  
G15  20493660.099   107694909.120       -1624.911          49.000  
G20  20543721.746   107957988.875       -2964.383          47.000  
G18  20991959.085   110313489.800        1500.360          47.000  
G13  22524775.261   118368490.832       -2774.353          37.000  
C 3  37427583.400   194895230.922        -509.191          41.000  
G12  22357267.942   117488236.808        2949.272          47.000  
G10  23003784.349   120885716.528        2752.181          43.000  
C 6  35997240.408   187447020.108         -19.315          42.000  
C 1  36816295.824   191712070.018        -489.069          43.000  
C 4  37072042.638   193043819.201        -514.664          43.000  
J 1  37221565.966   195600653.437          87.824          44.000  
J 2  36952904.778   194188830.144       -1161.707          45.000  
G25  24967207.368   131203602.570        3273.573          27.000  
G21  22803198.240   119831600.444       -1991.495          45.000  
> 2017 10 10 10 23 34.1980000  0 15                     
G24  19614610.441   103075474.562        -469.643          50.000  
G15  20493721.951   107695234.087       -1624.806          49.000  
G20  20543834.570   107958581.725       -2964.246          47.000  
G18  20991901.926   110313189.691        1500.546          47.000  
G13  22524880.887   118369045.679       -2773.836          37.000  
C 3  37427602.839   194895332.776        -509.165          41.000  
G12  22357155.737   117487646.943        2949.466          47.000  
G10  23003679.560   120885166.069        2752.213          43.000  
C 6  35997241.158   187447023.997         -19.293          42.000  
C 1  36816314.644   191712167.802        -488.701          43.000  
C 4  37072062.532   193043922.177        -514.866          43.000  
J 1  37221562.537   195600635.830          88.180          44.000  
J 2  36952949.111   194189062.452       -1161.455          45.000  
G25  24967083.532   131202947.886        3273.509          27.000  
G21  22803274.052   119831998.726       -1991.302          45.000  
> 2017 10 10 10 23 34.3980000  0 15                     
G24  19614628.249   103075568.526        -469.926          50.000  
G15  20493783.917   107695559.077       -1624.896          49.000  
G20  20543947.482   107959174.615       -2964.397          47.000  
G18  20991844.821   110312889.621        1500.482          47.000  
G13  22524986.496   118369600.580       -2774.514          37.000  
C 3  37427622.445   194895434.653        -509.263          41.000  
G12  22357043.480   117487057.112        2949.200          47.000  
G10  23003574.824   120884615.632        2752.246          43.000  
C 6  35997241.969   187447027.899         -19.342          42.000  
C 1  36816333.482   191712265.630        -488.801          43.000  
C 4  37072082.250   193044025.139        -514.844          43.000  
J 1  37221559.143   195600618.260          88.107          44.000  
J 2  36952993.408   194189294.792       -1161.691          45.000  
G25  24966959.217   131202293.190        3273.388          27.000  
G21  22803349.856   119832397.060       -1991.731          45.000  
> 2017 10 10 10 23 34.5980000  0 15                     
G24  19614646.170   103075662.493        -470.144          50.000  
G15  20493845.769   107695884.071       -1625.035          49.000  
G20  20544060.201   107959767.522       -2964.717          47.000  
G18  20991787.723   110312589.557        1500.146          47.000  
G13  22525092.104   118370155.448       -2774.530          37.000  
C 3  37427641.945   194895536.526        -509.641          41.000  
G12  22356931.310   117486467.272        2948.983          47.000  
G10  23003470.114   120884065.194        2752.141          43.000  
C 6  35997242.589   187447031.801         -19.785          42.000  
C 1  36816352.337   191712363.450        -489.271          43.000  
C 4  37072102.048   193044128.096        -514.917          43.000  
J 1  37221555.862   195600600.676          87.755          45.000  
J 2  36953037.592   194189527.111       -1161.721          45.000  
G25  24966834.177   131201638.480        3273.519          27.000  
G21  22803425.712   119832795.371       -1991.812          45.000  
> 2017 10 10 10 23 34.7980000  0 15                     
G24  19614664.083   103075756.503        -470.019          50.000  
G15  20493907.621   107696209.106       -1624.990          49.000  
G20  20544173.087   107960360.458       -2964.620          47.000  
G18  20991730.530   110312289.523        1500.346          47.000  
G13  22525197.670   118370710.359       -2774.698          37.000  
C 3  37427661.524   194895638.412        -509.193          41.000  
G12  22356819.157   117485877.463        2949.137          47.000  
G10  23003365.430   120883514.790        2752.150          43.000  
C 6  35997243.357   187447035.704         -19.367          42.000  
C 1  36816371.253   191712461.272        -489.220          43.000  
C 4  37072121.888   193044231.074        -514.688          43.000  
J 1  37221552.591   195600583.106          88.005          45.000  
J 2  36953081.933   194189759.460       -1161.590          45.000  
G25  24966709.033   131200983.798        3273.502          27.000  
G21  22803501.568   119833193.736       -1991.809          45.000  
> 2017 10 10 10 23 34.9980000  0 15                     
G24  19614681.899   103075850.501        -470.191          50.000  
G15  20493969.456   107696534.112       -1625.117          49.000  
G20  20544285.859   107960953.381       -2964.646          47.000  
G18  20991673.416   110311989.476        1500.237          47.000  
G13  22525303.287   118371265.203       -2774.141          37.000  
C 3  37427681.086   194895740.266        -509.250          41.000  
G12  22356706.909   117485287.624        2949.103          47.000  
G10  23003260.633   120882964.347        2752.184          43.000  
C 6  35997244.020   187447039.594         -19.782          42.000  
C 1  36816390.038   191712559.058        -489.015          43.000  
C 4  37072141.616   193044334.015        -514.761          43.000  
J 1  37221549.170   195600565.512          88.000          44.000  
J 2  36953126.169   194189991.772       -1161.578          45.000  
G25  24966583.522   131200329.069        3273.507          27.000  
G21  22803577.363   119833592.066       -1991.800          45.000  
> 2017 10 10 10 23 35.1980000  0 15                     
G24  19614699.725   103075944.554        -470.177          50.000  
G15  20494031.256   107696859.164       -1625.080          49.000  
G20  20544398.744   107961546.378       -2964.960          47.000  
G18  20991616.441   110311689.490        1500.013          47.000  
G13  22525408.852   118371820.130       -2774.259          37.000  
C 3  37427700.709   194895842.174        -509.517          41.000  
G12  22356594.713   117484697.840        2949.031          47.000  
G10  23003155.888   120882413.964        2752.021          43.000  
C 6  35997244.849   187447043.508         -19.696          42.000  
C 1  36816408.815   191712656.879        -488.882          43.000  
C 4  37072161.387   193044437.007        -514.678          43.000  
J 1  37221545.855   195600547.960          87.882          44.000  
J 2  36953170.371   194190224.131       -1161.559          45.000  
G25  24966460.559   131199674.414        3272.730          27.000  
G21  22803653.150   119833990.465       -1991.782          45.000  
> 2017 10 10 10 23 35.3980000  0 15                     
G24  19614717.759   103076038.629        -470.424          50.000  
G15  20494093.178   107697184.223       -1625.282          49.000  
G20  20544511.595   107962139.364       -2965.023          47.000  
G18  20991559.230   110311389.505        1499.865          47.000  
G13  22525514.522   118372375.052       -2774.579          37.000  
C 3  37427720.218   194895944.045        -509.433          41.000  
G12  22356482.499   117484108.056        2948.830          47.000  
G10  23003051.230   120881863.574        2751.885          43.000  
C 6  35997245.678   187447047.420         -19.861          42.000  
C 1  36816427.547   191712754.712        -489.220          43.000  
C 4  37072181.080   193044539.984        -514.991          43.000  
J 1  37221542.400   195600530.395          87.841          44.000  
J 2  36953214.572   194190456.494       -1161.882          45.000  
G25  24966337.082   131199019.670        3273.665          26.000  
G21  22803728.988   119834388.869       -1992.097          45.000  
> 2017 10 10 10 23 35.5980000  0 15                     
G24  19614735.663   103076132.726        -470.496          50.000  
G15  20494155.170   107697509.305       -1625.401          49.000  
G20  20544624.411   107962732.388       -2965.129          47.000  
G18  20991502.142   110311089.548        1499.689          47.000  
G13  22525620.296   118372929.973       -2774.340          37.000  
C 3  37427739.823   194896045.943        -509.355          41.000  
G12  22356370.268   117483518.284        2948.865          47.000  
G10  23002946.502   120881313.199        2751.874          43.000  
C 6  35997246.489   187447051.330         -19.750          42.000  
C 1  36816446.463   191712852.552        -489.212          43.000  
C 4  37072200.982   193044642.959        -514.588          43.000  
J 1  37221539.102   195600512.845          87.932          44.000  
J 2  36953258.922   194190688.853       -1161.741          45.000  
G25  24966212.548   131198364.977        3273.428          26.000  
G21  22803804.897   119834787.290       -1992.004          45.000  
> 2017 10 10 10 23 35.7980000  0 15                     
G24  19614753.559   103076226.810        -470.155          50.000  
G15  20494217.040   107697834.355       -1625.007          49.000  
G20  20544737.244   107963325.392       -2964.740          47.000  
G18  20991445.010   110310789.567        1500.207          47.000  
G13  22525725.792   118373484.870       -2774.234          37.000  
C 3  37427759.455   194896147.815        -509.119          41.000  
G12  22356258.072   117482928.490        2949.201          47.000  
G10  23002841.627   120880762.809        2752.174          43.000  
C 6  35997247.344   187447055.201         -19.003          42.000  
C 1  36816465.179   191712950.346        -488.851          43.000  
C 4  37072220.727   193044745.932        -514.469          43.000  
J 1  37221535.742   195600495.265          88.172          44.000  
J 2  36953303.088   194190921.189       -1161.436          45.000  
G25  24966087.125   131197710.222        3273.871          26.000  
G21  22803880.831   119835185.699       -1991.652          45.000  
> 2017 10 10 10 23 35.9980000  0 15                     
G24  19614771.471   103076320.919        -470.358          50.000  
G15  20494278.962   107698159.423       -1625.195          49.000  
G20  20544850.103   107963918.431       -2965.070          47.000  
G18  20991387.965   110310489.608        1500.041          47.000  
G13  22525831.383   118374039.783       -2774.299          37.000  
C 3  37427779.086   194896249.674        -509.070          41.000  
G12  22356145.762   117482338.703        2949.108          47.000  
G10  23002736.934   120880212.411        2752.132          43.000  
C 6  35997248.060   187447059.086         -19.156          42.000  
C 1  36816483.833   191713048.138        -488.594          43.000  
C 4  37072240.384   193044848.885        -514.633          43.000  
J 1  37221532.392   195600477.686          88.097          45.000  
J 2  36953347.194   194191153.518       -1161.449          45.000  
G25  24965962.295   131197055.467        3273.887          26.000  
G21  22803956.731   119835584.126       -1991.947          45.000  
> 2017 10 10 10 23 36.1980000  0 15                     
G24  19614789.436   103076415.055        -470.711          50.000  
G15  20494340.849   107698484.507       -1625.376          49.000  
G20  20544962.840   107964511.477       -2965.210          47.000  
G18  20991330.912   110310189.680        1499.490          47.000  
G13  22525937.053   118374594.693       -2774.525          37.000  
C 3  37427798.657   194896351.542        -509.049          41.000  
G12  22356033.453   117481748.932        2948.901          47.000  
G10  23002632.198   120879662.032        2751.934          43.000  
C 6  35997248.784   187447062.978         -19.420          42.000  
C 1  36816502.583   191713145.959        -488.837          43.000  
C 4  37072260.007   193044951.846        -514.685          43.000  
J 1  37221529.076   195600460.115          87.948          45.000  
J 2  36953391.535   194191385.870       -1161.682          45.000  
G25  24965838.634   131196400.756        3273.612          26.000  
G21  22804032.631   119835982.570       -1992.194          45.000  
> 2017 10 10 10 23 36.3980000  0 15                     
G24  19614807.253   103076509.217        -470.938          50.000  
G15  20494402.693   107698809.605       -1625.707          49.000  
G20  20545075.569   107965104.561       -2965.704          47.000  
G18  20991273.788   110309889.757        1499.300          47.000  
G13  22526042.644   118375149.612       -2774.716          37.000  
C 3  37427818.341   194896453.413        -509.189          41.000  
G12  22355921.152   117481159.175        2948.671          47.000  
G10  23002527.436   120879111.683        2751.566          43.000  
C 6  35997249.621   187447066.868         -19.616          42.000  
C 1  36816521.325   191713243.789        -489.319          43.000  
C 4  37072279.761   193045054.814        -514.890          43.000  
J 1  37221525.656   195600442.554          87.615          45.000  
J 2  36953435.658   194191618.219       -1161.897          45.000  
G25  24965713.952   131195745.979        3273.977          26.000  
G21  22804108.522   119836381.037       -1992.420          45.000  
> 2017 10 10 10 23 36.5980000  0 15                     
G24  19614825.043   103076603.362        -470.834          50.000  
G15  20494464.597   107699134.677       -1625.330          49.000  
G20  20545188.384   107965697.612       -2965.412          47.000  
G18  20991216.691   110309589.818        1499.578          47.000  
G13  22526148.192   118375704.497       -2774.226          37.000  
C 3  37427837.798   194896555.259        -509.281          41.000  
G12  22355808.868   117480569.389        2948.873          47.000  
G10  23002422.664   120878561.277        2751.951          43.000  
C 6  35997250.476   187447070.723         -19.220          42.000  
C 1  36816540.162   191713341.547        -488.957          43.000  
C 4  37072299.497   193045157.749        -514.891          43.000  
J 1  37221522.192   195600424.951          87.973          44.000  
J 2  36953479.929   194191850.532       -1161.632          45.000  
G25  24965590.317   131195091.239        3273.542          26.000  
G21  22804184.256   119836779.474       -1992.250          45.000  
> 2017 10 10 10 23 36.7980000  0 15                     
G24  19614842.851   103076697.500        -470.550          50.000  
G15  20494526.441   107699459.734       -1625.143          49.000  
G20  20545301.261   107966290.661       -2965.042          47.000  
G18  20991159.629   110309289.861        1500.054          47.000  
G13  22526253.783   118376259.357       -2773.586          37.000  
C 3  37427857.377   194896657.084        -508.895          41.000  
G12  22355696.620   117479979.580        2949.286          47.000  
G10  23002317.841   120878010.874        2752.167          43.000  
C 6  35997251.297   187447074.558         -19.027          42.000  
C 1  36816558.886   191713439.298        -488.283          43.000  
C 4  37072319.320   193045260.645        -514.192          43.000  
J 1  37221518.885   195600407.324          88.352          45.000  
J 2  36953524.252   194192082.827       -1161.268          45.000  
G25  24965465.548   131194436.393        3274.424          26.000  
G21  22804260.121   119837177.907       -1991.880          45.000  
> 2017 10 10 10 23 36.9980000  0 15                     
G24  19614860.930   103076791.648        -470.629          50.000  
G15  20494588.346   107699784.772       -1625.075          49.000  
G20  20545413.998   107966883.713       -2965.193          47.000  
G18  20991102.488   110308989.906        1499.875          47.000  
G13  22526359.383   118376814.236       -2774.373          37.000  
C 3  37427876.816   194896758.883        -508.999          41.000  
G12  22355584.424   117479389.763        2949.183          47.000  
G10  23002213.175   120877460.456        2752.155          43.000  
C 6  35997252.056   187447078.361         -18.835          42.000  
C 1  36816577.663   191713537.039        -488.612          43.000  
C 4  37072339.109   193045363.542        -514.304          43.000  
J 1  37221515.500   195600389.689          88.422          44.000  
J 2  36953568.401   194192315.110       -1161.341          45.000  
G25  24965340.919   131193781.548        3273.920          26.000  
G21  22804336.003   119837576.341       -1992.052          45.000  
> 2017 10 10 10 23 37.1980000  0 15                     
G24  19614878.790   103076885.829        -470.818          50.000  
G15  20494650.364   107700109.848       -1625.217          49.000  
G20  20545526.805   107967476.799       -2965.308          47.000  
G18  20991045.330   110308689.985        1499.816          47.000  
G13  22526464.992   118377369.102       -2774.265          37.000  
C 3  37427896.474   194896860.683        -509.127          41.000  
G12  22355472.140   117478799.970        2949.137          47.000  
G10  23002108.456   120876910.054        2752.125          43.000  
C 6  35997252.815   187447082.195         -18.977          42.000  
C 1  36816596.361   191713634.800        -488.731          43.000  
C 4  37072358.862   193045466.436        -514.056          43.000  
J 1  37221512.202   195600372.064          88.311          45.000  
J 2  36953612.681   194192547.401       -1161.362          46.000  
G25  24965216.490   131193126.739        3274.260          26.000  
G21  22804411.789   119837974.794       -1992.063          45.000  
> 2017 10 10 10 23 37.3980000  0 15                     
G24  19614896.772   103076980.016        -471.041          50.000  
G15  20494712.207   107700434.923       -1625.481          49.000  
G20  20545639.751   107968069.887       -2965.418          47.000  
G18  20990988.250   110308390.064        1499.630          47.000  
G13  22526570.626   118377923.967       -2774.378          37.000  
C 3  37427916.088   194896962.483        -509.017          41.000  
G12  22355359.822   117478210.179        2949.008          47.000  
G10  23002003.772   120876359.653        2751.977          43.000  
C 6  35997253.626   187447086.013         -19.041          42.000  
C 1  36816615.076   191713732.522        -488.661          43.000  
C 4  37072378.572   193045569.333        -514.445          43.000  
J 1  37221508.860   195600354.429          88.241          45.000  
J 2  36953656.804   194192779.683       -1161.376          46.000  
G25  24965092.532   131192471.919        3273.971          26.000  
G21  22804487.645   119838373.258       -1992.464          45.000  
> 2017 10 10 10 23 37.5980000  0 15                     
G24  19614914.711   103077074.242        -471.105          50.000  
G15  20494774.033   107700760.020       -1625.517          49.000  
G20  20545752.663   107968663.020       -2965.690          47.000  
G18  20990931.118   110308090.178        1499.459          47.000  
G13  22526676.322   118378478.848       -2774.163          37.000  
C 3  37427935.632   194897064.304        -509.046          41.000  
G12  22355247.538   117477620.407        2948.865          47.000  
G10  23001899.062   120875809.276        2751.923          43.000  
C 6  35997254.385   187447089.848         -19.131          42.000  
C 1  36816633.792   191713830.265        -488.459          43.000  
C 4  37072398.431   193045672.245        -514.470          43.000  
J 1  37221505.484   195600336.815          88.103          45.000  
J 2  36953700.971   194193011.988       -1161.487          45.000  
G25  24964967.449   131191817.024        3274.484          25.000  
G21  22804563.458   119838771.747       -1992.321          45.000  
> 2017 10 10 10 23 37.7980000  0 15                     
G24  19614932.685   103077168.526        -471.541          50.000  
G15  20494835.886   107701085.171       -1625.798          49.000  
G20  20545865.601   107969256.212       -2966.214          47.000  
G18  20990874.039   110307790.352        1499.184          47.000  
G13  22526782.018   118379033.794       -2774.878          37.000  
C 3  37427955.177   194897166.162        -509.313          41.000  
G12  22355135.272   117477030.686        2948.526          47.000  
G10  23001794.291   120875258.949        2751.586          43.000  
C 6  35997255.170   187447093.723         -19.493          42.000  
C 1  36816652.646   191713928.073        -488.911          43.000  
C 4  37072418.080   193045775.199        -514.835          43.000  
J 1  37221502.133   195600319.244          87.721          44.000  
J 2  36953745.233   194193244.339       -1161.845          45.000  
G25  24964841.598   131191162.294        3273.821          25.000  
G21  22804639.244   119839170.297       -1992.805          45.000  
> 2017 10 10 10 23 37.9980000  0 15                     
G24  19614950.667   103077262.831        -471.747          50.000  
G15  20494897.764   107701410.330       -1625.864          49.000  
G20  20545978.460   107969849.407       -2966.063          47.000  
G18  20990816.924   110307490.538        1499.082          47.000  
G13  22526887.496   118379588.732       -2774.725          37.000  
C 3  37427974.826   194897268.019        -509.188          41.000  
G12  22355023.015   117476440.965        2948.601          47.000  
G10  23001689.659   120874708.626        2751.519          43.000  
C 6  35997255.999   187447097.591         -19.329          42.000  
C 1  36816671.449   191714025.867        -488.962          43.000  
C 4  37072437.990   193045878.138        -514.523          43.000  
J 1  37221498.774   195600301.667          87.916          45.000  
J 2  36953789.548   194193476.683       -1161.783          45.000  
G25  24964716.070   131190507.449        3274.136          25.000  
G21  22804715.083   119839568.857       -1992.693          45.000  
> 2017 10 10 10 23 38.1980000  0 15                     
G24  19614968.615   103077357.148        -471.632          50.000  
G15  20494959.677   107701735.503       -1625.886          49.000  
G20  20546091.320   107970442.634       -2966.256          47.000  
G18  20990759.792   110307190.749        1498.812          47.000  
G13  22526993.175   118380143.682       -2774.669          37.000  
C 3  37427994.396   194897369.880        -509.324          41.000  
G12  22354910.732   117475851.266        2948.472          47.000  
G10  23001584.967   120874158.320        2751.526          43.000  
C 6  35997256.706   187447101.464         -19.194          42.000  
C 1  36816690.243   191714123.664        -489.150          43.000  
C 4  37072457.657   193045981.095        -514.893          43.000  
J 1  37221495.581   195600284.100          87.759          45.000  
J 2  36953833.723   194193709.031       -1161.725          45.000  
G25  24964592.549   131189852.664        3273.804          25.000  
G21  22804790.843   119839967.448       -1993.068          45.000  
> 2017 10 10 10 23 38.3980000  0 15                     
G24  19614986.510   103077451.503        -471.742          50.000  
G15  20495021.486   107702060.693       -1626.059          49.000  
G20  20546204.240   107971035.881       -2966.262          47.000  
G18  20990702.756   110306890.973        1498.766          47.000  
G13  22527098.853   118380698.639       -2775.118          37.000  
C 3  37428013.870   194897471.743        -509.514          41.000  
G12  22354798.387   117475261.572        2948.440          47.000  
G10  23001480.248   120873608.017        2751.402          43.000  
C 6  35997257.500   187447105.339         -19.242          42.000  
C 1  36816709.089   191714221.455        -488.858          43.000  
C 4  37072477.367   193046084.042        -514.978          43.000  
J 1  37221492.204   195600266.543          87.716          45.000  
J 2  36953877.968   194193941.396       -1161.839          45.000  
G25  24964467.971   131189197.840        3274.366          25.000  
G21  22804866.751   119840366.038       -1992.988          45.000  
> 2017 10 10 10 23 38.5980000  0 15                     
G24  19615004.327   103077545.921        -471.878          50.000  
G15  20495083.461   107702385.928       -1625.910          49.000  
G20  20546317.160   107971629.188       -2966.223          47.000  
G18  20990645.755   110306591.249        1498.807          47.000  
G13  22527204.523   118381253.636       -2774.770          37.000  
C 3  37428033.345   194897573.640        -509.197          41.000  
G12  22354686.200   117474671.930        2948.448          47.000  
G10  23001375.529   120873057.772        2751.374          43.000  
C 6  35997258.111   187447109.280         -19.667          42.000  
C 1  36816727.604   191714319.316        -489.070          43.000  
C 4  37072497.182   193046187.043        -514.871          43.000  
J 1  37221488.854   195600249.016          87.884          45.000  
J 2  36953922.327   194194173.798       -1161.875          45.000  
G25  24964342.059   131188543.094        3273.711          25.000  
G21  22804942.599   119840764.701       -1993.152          45.000  
> 2017 10 10 10 23 38.7980000  0 15                     
G24  19615022.222   103077640.336        -472.022          50.000  
G15  20495145.304   107702711.148       -1625.923          49.000  
G20  20546430.124   107972222.488       -2966.364          47.000  
G18  20990588.649   110306291.516        1498.799          47.000  
G13  22527310.123   118381808.612       -2775.056          37.000  
C 3  37428052.968   194897675.508        -509.074          41.000  
G12  22354574.065   117474082.264        2948.514          47.000  
G10  23001270.906   120872507.501        2751.459          43.000  
C 6  35997258.861   187447113.150         -19.310          42.000  
C 1  36816746.276   191714417.133        -489.260          43.000  
C 4  37072517.066   193046290.000        -514.605          43.000  
J 1  37221485.564   195600231.472          87.843          45.000  
J 2  36953966.642   194194406.169       -1161.677          45.000  
G25  24964216.828   131187888.213        3274.438          25.000  
G21  22805018.446   119841163.340       -1993.066          45.000  
> 2017 10 10 10 23 38.9980000  0 15                     
G24  19615040.248   103077734.772        -472.099          50.000  
G15  20495207.191   107703036.395       -1626.156          49.000  
G20  20546543.045   107972815.821       -2966.617          47.000  
G18  20990531.639   110305991.815        1498.527          47.000  
G13  22527415.697   118382363.596       -2774.807          36.000  
C 3  37428072.590   194897777.401        -509.240          41.000  
G12  22354461.834   117473492.623        2948.324          47.000  
G10  23001166.188   120871957.238        2751.398          43.000  
C 6  35997259.681   187447117.051         -19.405          42.000  
C 1  36816765.174   191714514.956        -489.237          43.000  
C 4  37072536.698   193046392.994        -514.802          43.000  
J 1  37221482.257   195600213.938          87.700          45.000  
J 2  36954010.921   194194638.558       -1161.689          45.000  
G25  24964092.495   131187233.520        3273.382          25.000  
G21  22805094.215   119841562.005       -1993.151          45.000  
> 2017 10 10 10 23 39.1980000  0 15                     
G24  19615058.204   103077829.219        -472.161          50.000  
G15  20495269.061   107703361.641       -1626.247          49.000  
G20  20546655.913   107973409.155       -2966.638          47.000  
G18  20990474.638   110305692.114        1498.466          47.000  
G13  22527521.288   118382918.575       -2774.872          36.000  
C 3  37428092.126   194897879.276        -509.371          41.000  
G12  22354349.646   117472902.977        2948.356          47.000  
G10  23001061.478   120871406.984        2751.405          43.000  
C 6  35997260.414   187447120.935         -19.122          42.000  
C 1  36816784.055   191714612.747        -488.716          43.000  
C 4  37072556.443   193046495.950        -514.752          43.000  
J 1  37221478.951   195600196.390          87.875          44.000  
J 2  36954055.210   194194870.939       -1161.774          45.000  
G25  24963967.709   131186578.619        3274.762          25.000  
G21  22805170.132   119841960.686       -1993.390          45.000  
> 2017 10 10 10 23 39.3980000  0 15                     
G24  19615076.073   103077923.673        -472.247          50.000  
G15  20495330.966   107703686.873       -1626.181          49.000  
G20  20546768.859   107974002.495       -2966.820          47.000  
G18  20990417.585   110305392.409        1498.363          47.000  
G13  22527626.967   118383473.559       -2774.998          36.000  
C 3  37428111.827   194897981.124        -509.161          41.000  
G12  22354237.354   117472313.326        2948.170          47.000  
G10  23000956.733   120870856.724        2751.305          43.000  
C 6  35997261.034   187447124.814         -19.440          42.000  
C 1  36816802.893   191714710.555        -488.790          43.000  
C 4  37072576.266   193046598.896        -514.647          43.000  
J 1  37221475.591   195600178.835          87.817          44.000  
J 2  36954099.324   194195103.308       -1161.959          45.000  
G25  24963843.158   131185923.859        3273.347          25.000  
G21  22805246.084   119842359.348       -1993.206          45.000  
> 2017 10 10 10 23 39.5980000  0 15                     
G24  19615094.030   103078018.168        -472.493          50.000  
G15  20495392.835   107704012.142       -1626.415          49.000  
G20  20546881.736   107974595.864       -2966.764          47.000  
G18  20990360.514   110305092.736        1498.366          47.000  
G13  22527732.514   118384028.548       -2774.827          36.000  
C 3  37428131.310   194898083.021        -509.386          41.000  
G12  22354125.106   117471723.693        2948.200          47.000  
G10  23000851.988   120870306.490        2751.196          43.000  
C 6  35997261.749   187447128.697         -19.366          42.000  
C 1  36816821.643   191714808.382        -489.169          43.000  
C 4  37072596.002   193046701.880        -515.108          43.000  
J 1  37221472.267   195600161.296          87.686          44.000  
J 2  36954143.683   194195335.690       -1161.859          45.000  
G25  24963718.554   131185268.988        3273.913          25.000  
G21  22805322.089   119842758.060       -1993.666          45.000  
> 2017 10 10 10 23 39.7980000  0 15                     
G24  19615112.117   103078112.681        -472.440          50.000  
G15  20495454.819   107704337.418       -1626.277          49.000  
G20  20546994.630   107975189.268       -2966.926          47.000  
G18  20990303.617   110304793.079        1498.443          47.000  
G13  22527838.202   118384583.535       -2774.780          36.000  
C 3  37428150.846   194898184.885        -509.315          41.000  
G12  22354012.840   117471134.071        2948.309          47.000  
G10  23000747.356   120869756.262        2751.265          43.000  
C 6  35997262.430   187447132.595         -19.511          42.000  
C 1  36816840.454   191714906.181        -488.985          43.000  
C 4  37072615.782   193046804.839        -514.669          43.000  
J 1  37221468.768   195600143.763          87.822          44.000  
J 2  36954187.910   194195568.084       -1161.810          45.000  
G25  24963592.538   131184614.114        3274.851          25.000  
G21  22805398.049   119843156.772       -1993.580          45.000  
> 2017 10 10 10 23 39.9980000  0 15                     
G24  19615130.056   103078207.221        -472.787          50.000  
G15  20495516.601   107704662.703       -1626.510          49.000  
G20  20547107.559   107975782.680       -2967.165          47.000  
G18  20990246.590   110304493.449        1498.147          47.000  
G13  22527943.819   118385138.571       -2775.141          36.000  
C 3  37428170.469   194898286.767        -509.250          41.000  
G12  22353900.600   117470544.463        2948.052          47.000  
G10  23000642.603   120869206.040        2751.160          43.000  
C 6  35997263.180   187447136.477         -19.471          42.000  
C 1  36816859.013   191715003.997        -489.170          43.000  
C 4  37072635.536   193046907.813        -514.909          43.000  
J 1  37221465.435   195600126.234          87.512          44.000  
J 2  36954232.173   194195800.472       -1162.075          45.000  
G25  24963468.161   131183959.310        3274.211          25.000  
G21  22805473.914   119843555.508       -1993.801          45.000  
> 2017 10 10 10 23 40.1980000  0 15                     
G24  19615148.012   103078301.783        -472.721          50.000  
G15  20495578.497   107704988.002       -1626.362          49.000  
G20  20547220.506   107976376.118       -2967.101          47.000  
G18  20990189.571   110304193.831        1498.181          47.000  
G13  22528049.480   118385693.578       -2775.011          36.000  
C 3  37428189.987   194898388.668        -509.498          41.000  
G12  22353788.264   117469954.871        2947.985          47.000  
G10  23000538.119   120868655.833        2751.179          43.000  
C 6  35997263.913   187447140.378         -19.462          42.000  
C 1  36816877.920   191715101.812        -488.742          43.000  
C 4  37072655.385   193047010.781        -514.712          43.000  
J 1  37221462.085   195600108.704          87.676          44.000  
J 2  36954276.409   194196032.869       -1161.844          45.000  
G25  24963343.855   131183304.524        3273.843          25.000  
G21  22805549.954   119843954.252       -1993.553          45.000  
> 2017 10 10 10 23 40.3980000  0 15                     
G24  19615165.907   103078396.354        -472.784          50.000  
G15  20495640.524   107705313.301       -1626.406          49.000  
G20  20547333.487   107976969.562       -2967.197          47.000  
G18  20990132.596   110303894.213        1498.074          47.000  
G13  22528155.106   118386248.595       -2775.144          36.000  
C 3  37428209.601   194898490.528        -509.313          41.000  
G12  22353676.007   117469365.260        2948.114          47.000  
G10  23000433.374   120868105.614        2751.129          43.000  
C 6  35997264.768   187447144.242         -19.294          42.000  
C 1  36816896.705   191715199.639        -489.192          43.000  
C 4  37072675.052   193047113.754        -514.736          43.000  
J 1  37221458.735   195600091.162          87.719          44.000  
J 2  36954320.576   194196265.254       -1161.770          46.000  
G25  24963220.316   131182649.605        3274.569          25.000  
G21  22805625.775   119844353.012       -1993.726          45.000  
> 2017 10 10 10 23 40.5980000  0 15                     
G24  19615183.959   103078490.975        -472.970          50.000  
G15  20495702.402   107705638.641       -1626.649          49.000  
G20  20547446.364   107977563.050       -2967.280          47.000  
G18  20990075.578   110303594.640        1498.063          47.000  
G13  22528260.593   118386803.621       -2775.177          36.000  
C 3  37428229.232   194898592.419        -509.189          41.000  
G12  22353563.837   117468775.694        2947.947          47.000  
G10  23000328.595   120867555.432        2750.902          43.000  
C 6  35997265.492   187447148.156         -19.377          42.000  
C 1  36816915.517   191715297.464        -489.142          43.000  
C 4  37072694.866   193047216.738        -514.604          43.000  
J 1  37221455.454   195600073.657          87.493          44.000  
J 2  36954364.777   194196497.672       -1161.881          46.000  
G25  24963094.823   131181994.858        3273.406          25.000  
G21  22805701.570   119844751.814       -1994.075          45.000  
> 2017 10 10 10 23 40.7980000  0 15                     
G24  19615202.047   103078585.570        -472.900          50.000  
G15  20495764.220   107705963.946       -1626.397          49.000  
G20  20547559.214   107978156.519       -2967.306          47.000  
G18  20990018.559   110303295.042        1498.250          47.000  
G13  22528366.254   118387358.604       -2774.685          36.000  
C 3  37428248.829   194898694.281        -509.102          41.000  
G12  22353451.667   117468186.093        2948.128          47.000  
G10  23000223.885   120867005.225        2751.061          43.000  
C 6  35997266.164   187447152.021         -19.304          42.000  
C 1  36816934.450   191715395.249        -488.783          43.000  
C 4  37072714.559   193047319.707        -514.815          43.000  
J 1  37221452.077   195600056.097          87.830          44.000  
J 2  36954408.935   194196730.048       -1161.699          46.000  
G25  24962970.350   131181339.913        3274.713          25.000  
G21  22805777.539   119845150.578       -1993.737          45.000  
> 2017 10 10 10 23 40.9980000  0 15                     
G24  19615220.012   103078680.130        -472.848          50.000  
G15  20495826.168   107706289.197       -1626.237          49.000  
G20  20547672.126   107978749.938       -2967.145          47.000  
G18  20989961.584   110302995.403        1498.209          47.000  
G13  22528471.784   118387913.556       -2774.602          36.000  
C 3  37428268.356   194898796.076        -508.875          41.000  
G12  22353339.523   117467596.440        2948.234          47.000  
G10  23000119.218   120866454.950        2751.391          43.000  
C 6  35997266.836   187447155.828         -19.297          42.000  
C 1  36816953.314   191715492.981        -488.417          43.000  
C 4  37072734.409   193047422.581        -514.351          43.000  
J 1  37221448.727   195600038.485          88.198          44.000  
J 2  36954453.180   194196962.371       -1161.573          46.000  
G25  24962846.026   131180684.933        3275.054          25.000  
G21  22805853.587   119845549.304       -1993.653          45.000  
> 2017 10 10 10 23 41.1980000  0 15                     
G24  19615238.081   103078774.711        -472.926          50.000  
G15  20495887.872   107706614.466       -1626.111          49.000  
G20  20547785.081   107979343.382       -2967.000          47.000  
G18  20989904.522   110302695.783        1498.176          47.000  
G13  22528577.445   118388468.510       -2774.507          36.000  
C 3  37428287.778   194898897.871        -508.650          41.000  
G12  22353227.318   117467006.793        2948.383          47.000  
G10  23000014.482   120865904.685        2751.541          43.000  
C 6  35997267.569   187447159.620         -18.648          42.000  
C 1  36816971.977   191715590.732        -488.512          43.000  
C 4  37072754.145   193047525.462        -514.183          43.000  
J 1  37221445.446   195600020.884          88.203          44.000  
J 2  36954497.512   194197194.691       -1161.552          46.000  
G25  24962720.699   131180030.033        3274.482          25.000  
G21  22805929.452   119845948.051       -1993.676          45.000  
> 2017 10 10 10 23 41.3980000  0 15                     
G24  19615255.968   103078869.277        -473.034          50.000  
G15  20495949.654   107706939.718       -1626.349          49.000  
G20  20547897.949   107979936.819       -2967.247          47.000  
G18  20989847.408   110302396.139        1498.070          47.000  
G13  22528683.132   118389023.433       -2774.604          36.000  
C 3  37428307.409   194898999.641        -508.694          41.000  
G12  22353115.052   117466417.123        2948.301          47.000  
G10  22999909.798   120865354.417        2751.200          43.000  
C 6  35997268.232   187447163.401         -18.898          42.000  
C 1  36816990.701   191715688.438        -488.908          43.000  
C 4  37072774.003   193047628.324        -514.219          43.000  
J 1  37221442.148   195600003.254          87.929          44.000  
J 2  36954541.687   194197426.980       -1161.452          46.000  
G25  24962596.374   131179375.038        3275.135          25.000  
G21  22806005.317   119846346.773       -1993.912          45.000  
> 2017 10 10 10 23 41.5980000  0 15                     
G24  19615273.819   103078963.856        -473.089          50.000  
G15  20496011.533   107707264.959       -1626.362          49.000  
G20  20548010.966   107980530.249       -2967.230          47.000  
G18  20989790.441   110302096.503        1498.051          47.000  
G13  22528788.724   118389578.346       -2774.588          36.000  
C 3  37428326.910   194899101.412        -509.132          41.000  
G12  22353002.838   117465827.453        2948.300          47.000  
G10  22999805.123   120864804.123        2751.285          43.000  
C 6  35997268.921   187447167.161         -18.962          42.000  
C 1  36817009.416   191715786.116        -488.429          43.000  
C 4  37072793.739   193047731.176        -514.490          43.000  
J 1  37221438.824   195599985.601          88.168          44.000  
J 2  36954585.924   194197659.270       -1161.613          46.000  
G25  24962472.260   131178720.033        3275.046          25.000  
G21  22806081.234   119846745.495       -1993.734          45.000  
> 2017 10 10 10 23 41.7980000  0 15                     
G24  19615291.828   103079058.447        -472.864          50.000  
G15  20496073.411   107707590.208       -1626.031          49.000  
G20  20548123.938   107981123.701       -2967.037          47.000  
G18  20989733.484   110301796.874        1498.273          47.000  
G13  22528894.271   118390133.263       -2774.223          36.000  
C 3  37428346.463   194899203.158        -508.730          41.000  
G12  22352890.695   117465237.784        2948.540          47.000  
G10  22999700.422   120864253.838        2751.711          43.000  
C 6  35997269.663   187447170.913         -18.699          42.000  
C 1  36817028.219   191715883.805        -488.042          43.000  
C 4  37072813.572   193047833.997        -513.929          43.000  
J 1  37221435.430   195599967.953          88.407          44.000  
J 2  36954630.151   194197891.542       -1161.182          46.000  
G25  24962347.892   131178065.036        3274.756          25.000  
G21  22806157.230   119847144.232       -1993.443          45.000  
> 2017 10 10 10 23 41.9980000  0 15                     
G24  19615309.767   103079153.040        -472.894          50.000  
G15  20496135.351   107707915.450       -1626.216          49.000  
G20  20548236.771   107981717.154       -2967.251          47.000  
G18  20989676.605   110301497.239        1498.169          47.000  
G13  22528999.871   118390688.162       -2774.562          36.000  
C 3  37428366.025   194899304.894        -508.609          41.000  
G12  22352778.446   117464648.108        2948.351          47.000  
G10  22999595.738   120863703.552        2751.403          43.000  
C 6  35997270.335   187447174.651         -18.574          42.000  
C 1  36817046.847   191715981.483        -488.425          43.000  
C 4  37072833.282   193047936.821        -513.794          43.000  
J 1  37221432.018   195599950.278          88.353          44.000  
J 2  36954674.283   194198123.806       -1161.252          46.000  
G25  24962224.135   131177410.004        3275.147          25.000  
G21  22806233.042   119847542.961       -1993.591          45.000  
> 2017 10 10 10 23 42.1980000  0 15                     
G24  19615327.863   103079247.657        -473.221          50.000  
G15  20496197.212   107708240.703       -1626.359          49.000  
G20  20548349.709   107982310.627       -2967.497          47.000  
G18  20989619.656   110301197.633        1497.880          47.000  
G13  22529105.436   118391243.057       -2774.439          36.000  
C 3  37428385.612   194899406.625        -508.838          41.000  
G12  22352666.206   117464058.440        2948.259          47.000  
G10  22999491.071   120863153.258        2751.409          43.000  
C 6  35997271.085   187447178.396         -18.891          42.000  
C 1  36817065.658   191716079.150        -488.539          43.000  
C 4  37072852.974   193048039.673        -514.403          43.000  
J 1  37221428.694   195599932.617          88.285          44.000  
J 2  36954718.537   194198356.073       -1161.366          46.000  
G25  24962098.773   131176754.970        3274.863          25.000  
G21  22806308.968   119847941.706       -1993.757          45.000  
> 2017 10 10 10 23 42.3980000  0 15                     
G24  19615345.924   103079342.311        -473.466          50.000  
G15  20496259.125   107708565.986       -1626.711          49.000  
G20  20548462.577   107982904.138       -2967.762          47.000  
G18  20989562.707   110300898.049        1497.668          47.000  
G13  22529211.106   118391798.016       -2774.957          36.000  
C 3  37428405.087   194899508.365        -508.944          41.000  
G12  22352553.966   117463468.791        2948.014          47.000  
G10  22999386.457   120862603.010        2751.084          43.000  
C 6  35997271.766   187447182.143         -18.858          42.000  
C 1  36817084.382   191716176.831        -488.573          43.000  
C 4  37072872.745   193048142.498        -514.302          43.000  
J 1  37221425.317   195599914.971          88.054          44.000  
J 2  36954762.677   194198588.362       -1161.682          46.000  
G25  24961974.667   131176099.925        3275.160          25.000  
G21  22806384.946   119848340.500       -1994.291          45.000  
> 2017 10 10 10 23 42.5980000  0 15                     
G24  19615364.011   103079437.020        -473.567          50.000  
G15  20496320.882   107708891.305       -1626.608          49.000  
G20  20548575.559   107983497.686       -2967.699          47.000  
G18  20989505.872   110300598.515        1497.545          47.000  
G13  22529316.715   118392352.951       -2774.672          36.000  
C 3  37428424.657   194899610.141        -508.762          41.000  
G12  22352441.831   117462879.188        2947.984          47.000  
G10  22999281.878   120862052.768        2751.332          43.000  
C 6  35997272.420   187447185.929         -18.972          42.000  
C 1  36817103.290   191716274.548        -488.503          43.000  
C 4  37072892.586   193048245.381        -514.271          43.000  
J 1  37221422.002   195599897.354          88.229          44.000  
J 2  36954807.009   194198820.678       -1161.580          46.000  
G25  24961851.433   131175444.925        3274.798          26.000  
G21  22806460.846   119848739.320       -1994.055          45.000  
> 2017 10 10 10 23 42.7980000  0 15                     
G24  19615382.142   103079531.764        -473.956          50.000  
G15  20496382.804   107709216.642       -1626.704          49.000  
G20  20548688.558   107984091.276       -2968.005          47.000  
G18  20989448.836   110300298.986        1497.792          47.000  
G13  22529422.245   118392907.925       -2774.604          36.000  
C 3  37428444.202   194899711.937        -508.909          41.000  
G12  22352329.670   117462289.595        2947.930          47.000  
G10  22999177.186   120861502.575        2750.854          43.000  
C 6  35997273.109   187447189.714         -19.058          42.000  
C 1  36817121.926   191716372.286        -488.870          43.000  
C 4  37072912.375   193048348.255        -514.459          43.000  
J 1  37221418.660   195599879.755          88.007          44.000  
J 2  36954851.158   194199053.009       -1161.740          46.000  
G25  24961727.615   131174789.909        3274.860          26.000  
G21  22806536.685   119849138.173       -1994.386          45.000  
> 2017 10 10 10 23 42.9980000  0 15                     
G24  19615400.072   103079626.513        -473.806          50.000  
G15  20496444.656   107709541.986       -1626.576          49.000  
G20  20548801.530   107984684.872       -2967.952          47.000  
G18  20989391.913   110299999.503        1497.279          47.000  
G13  22529527.924   118393462.913       -2774.973          36.000  
C 3  37428463.711   194899813.723        -508.924          41.000  
G12  22352217.561   117461700.013        2947.955          47.000  
G10  22999072.362   120860952.373        2751.012          43.000  
C 6  35997273.851   187447193.497         -18.615          42.000  
C 1  36817140.851   191716470.000        -488.594          43.000  
C 4  37072932.146   193048451.139        -514.241          43.000  
J 1  37221415.144   195599862.160          87.936          44.000  
J 2  36954895.482   194199285.331       -1161.477          46.000  
G25  24961603.527   131174134.902        3274.850          26.000  
G21  22806612.724   119849537.035       -1994.399          45.000  
> 2017 10 10 10 23 43.1980000  0 15                     
G24  19615418.106   103079721.318        -473.936          50.000  
G15  20496506.604   107709867.378       -1626.980          49.000  
G20  20548914.477   107985278.523       -2968.184          47.000  
G18  20989334.877   110299700.040        1497.304          47.000  
G13  22529633.541   118394017.939       -2775.259          36.000  
C 3  37428483.255   194899915.522        -508.807          41.000  
G12  22352105.313   117461110.465        2947.728          47.000  
G10  22998967.713   120860402.205        2750.854          43.000  
C 6  35997274.540   187447197.320         -19.057          42.000  
C 1  36817159.549   191716567.737        -488.447          43.000  
C 4  37072951.891   193048554.047        -514.565          43.000  
J 1  37221411.767   195599844.578          87.859          44.000  
J 2  36954939.718   194199517.696       -1161.735          46.000  
G25  24961479.168   131173479.975        3274.625          26.000  
G21  22806688.694   119849935.941       -1994.562          45.000  
> 2017 10 10 10 23 43.3980000  0 15                     
G24  19615436.141   103079816.159        -474.358          50.000  
G15  20496568.474   107710192.777       -1627.104          49.000  
G20  20549027.580   107985872.189       -2968.347          47.000  
G18  20989277.850   110299400.610        1497.130          47.000  
G13  22529739.167   118394572.945       -2775.367          36.000  
C 3  37428502.791   194900017.352        -509.304          41.000  
G12  22351993.143   117460520.927        2947.667          47.000  
G10  22998863.029   120859852.050        2750.744          43.000  
C 6  35997275.160   187447201.136         -19.046          42.000  
C 1  36817178.474   191716665.500        -488.686          43.000  
C 4  37072971.636   193048656.949        -514.600          43.000  
J 1  37221408.382   195599827.010          87.840          44.000  
J 2  36954983.937   194199750.062       -1161.972          46.000  
G25  24961355.394   131172824.933        3275.011          26.000  
G21  22806764.611   119850334.863       -1994.753          45.000  
> 2017 10 10 10 23 43.5980000  0 15                     
G24  19615454.176   103079911.018        -474.336          50.000  
G15  20496630.379   107710518.202       -1627.127          49.000  
G20  20549140.562   107986465.896       -2968.490          47.000  
G18  20989220.927   110299101.206        1497.106          47.000  
G13  22529844.724   118395127.966       -2775.213          36.000  
C 3  37428522.283   194900119.187        -509.384          41.000  
G12  22351880.850   117459931.414        2947.570          47.000  
G10  22998758.328   120859301.921        2750.714          43.000  
C 6  35997275.866   187447204.976         -19.286          42.000  
C 1  36817197.172   191716763.282        -489.022          43.000  
C 4  37072991.337   193048759.867        -514.650          43.000  
J 1  37221405.066   195599809.461          87.813          44.000  
J 2  36955028.199   194199982.434       -1161.833          46.000  
G25  24961231.497   131172170.003        3274.357          26.000  
G21  22806840.554   119850733.812       -1994.739          45.000  
> 2017 10 10 10 23 43.7980000  0 15                     
G24  19615472.263   103080005.865        -474.495          50.000  
G15  20496692.379   107710843.611       -1627.191          49.000  
G20  20549253.718   107987059.592       -2968.709          47.000  
G18  20989164.005   110298801.796        1496.898          47.000  
G13  22529950.358   118395682.998       -2775.159          36.000  
C 3  37428541.757   194900220.990        -509.428          41.000  
G12  22351768.602   117459341.878        2947.679          47.000  
G10  22998653.592   120858751.779        2750.300          43.000  
C 6  35997276.538   187447208.769         -19.147          42.000  
C 1  36817215.870   191716861.023        -489.089          43.000  
C 4  37073011.082   193048862.769        -514.573          43.000  
J 1  37221401.576   195599791.882          87.567          44.000  
J 2  36955072.471   194200214.798       -1161.993          46.000  
G25  24961108.063   131171514.938        3275.392          26.000  
G21  22806916.532   119851132.754       -1994.974          45.000  
> 2017 10 10 10 23 43.9980000  0 15                     
G24  19615490.202   103080100.783        -474.424          50.000  
G15  20496754.354   107711169.076       -1627.252          49.000  
G20  20549366.795   107987653.353       -2968.913          47.000  
G18  20989107.012   110298502.445        1496.586          47.000  
G13  22530055.932   118396238.063       -2775.469          36.000  
C 3  37428561.345   194900322.828        -509.067          41.000  
G12  22351656.493   117458752.410        2947.335          47.000  
G10  22998548.987   120858201.668        2750.505          43.000  
C 6  35997277.166   187447212.615         -18.919          42.000  
C 1  36817234.672   191716958.803        -488.960          43.000  
C 4  37073030.835   193048965.719        -514.888          43.000  
J 1  37221398.182   195599774.343          87.636          44.000  
J 2  36955116.803   194200447.194       -1161.990          46.000  
G25  24960985.868   131170860.015        3274.413          27.000  
G21  22806992.519   119851531.750       -1995.015          45.000  
> 2017 10 10 10 23 44.1980000  0 15                     
G24  19615508.246   103080195.724        -474.653          50.000  
G15  20496816.372   107711494.549       -1627.376          49.000  
G20  20549479.803   107988247.116       -2968.865          47.000  
G18  20989050.002   110298203.092        1496.809          47.000  
G13  22530161.672   118396793.118       -2775.496          36.000  
C 3  37428581.011   194900424.679        -509.124          41.000  
G12  22351544.445   117458162.929        2947.396          47.000  
G10  22998444.355   120857651.572        2750.574          43.000  
C 6  35997277.891   187447216.464         -19.257          42.000  
C 1  36817253.510   191717056.582        -488.835          43.000  
C 4  37073050.580   193049068.660        -514.783          43.000  
J 1  37221394.814   195599756.799          87.875          44.000  
J 2  36955160.987   194200679.587       -1161.807          46.000  
G25  24960862.102   131170205.001        3275.167          27.000  
G21  22807068.454   119851930.756       -1995.014          45.000  
> 2017 10 10 10 23 44.3980000  0 15                     
G24  19615526.350   103080290.694        -474.874          50.000  
G15  20496878.242   107711820.032       -1627.344          49.000  
G20  20549592.810   107988840.917       -2969.016          47.000  
G18  20988993.062   110297903.779        1496.650          47.000  
G13  22530267.350   118397348.183       -2775.051          36.000  
C 3  37428600.634   194900526.532        -509.209          41.000  
G12  22351432.310   117457573.471        2947.414          47.000  
G10  22998339.689   120857101.497        2750.273          43.000  
C 6  35997278.632   187447220.311         -19.222          42.000  
C 1  36817272.304   191717154.366        -488.856          43.000  
C 4  37073070.351   193049171.606        -514.790          43.000  
J 1  37221391.481   195599739.284          87.562          44.000  
J 2  36955205.249   194200912.009       -1162.037          46.000  
G25  24960738.232   131169550.060        3274.699          27.000  
G21  22807144.467   119852329.792       -1995.142          45.000  
> 2017 10 10 10 23 44.5980000  0 15                     
G24  19615544.359   103080385.675        -474.878          50.000  
G15  20496940.015   107712145.527       -1627.334          49.000  
G20  20549705.722   107989434.724       -2968.972          47.000  
G18  20988936.070   110297604.460        1496.688          47.000  
G13  22530373.003   118397903.273       -2775.334          36.000  
C 3  37428620.143   194900628.376        -509.213          41.000  
G12  22351320.175   117456984.015        2947.427          47.000  
G10  22998235.005   120856551.403        2750.735          43.000  
C 6  35997279.322   187447224.146         -19.023          42.000  
C 1  36817291.019   191717252.128        -488.623          43.000  
C 4  37073090.149   193049274.537        -514.673          43.000  
J 1  37221388.148   195599721.745          87.668          44.000  
J 2  36955249.529   194201144.411       -1161.969          46.000  
G25  24960614.283   131168895.047        3275.232          27.000  
G21  22807220.472   119852728.833       -1995.147          45.000  
> 2017 10 10 10 23 44.7980000  0 15                     
G24  19615562.516   103080480.699        -475.179          50.000  
G15  20497001.946   107712471.050       -1627.573          49.000  
G20  20549818.677   107990028.574       -2969.250          47.000  
G18  20988879.095   110297305.188        1496.249          47.000  
G13  22530478.603   118398458.358       -2775.560          36.000  
C 3  37428639.705   194900730.250        -509.265          41.000  
G12  22351207.979   117456394.591        2947.131          47.000  
G10  22998130.242   120856001.364        2750.251          43.000  
C 6  35997279.967   187447228.016         -19.288          42.000  
C 1  36817309.848   191717349.940        -488.790          43.000  
C 4  37073109.902   193049377.498        -514.945          43.000  
J 1  37221384.868   195599704.238          87.579          44.000  
J 2  36955293.757   194201376.835       -1162.104          46.000  
G25  24960489.540   131168240.076        3274.813          27.000  
G21  22807296.424   119853127.912       -1995.503          45.000  
> 2017 10 10 10 23 44.9980000  0 15                     
G24  19615580.646   103080575.738        -475.253          50.000  
G15  20497063.868   107712796.580       -1627.709          49.000  
G20  20549931.580   107990622.441       -2969.419          47.000  
G18  20988822.111   110297005.914        1496.518          47.000  
G13  22530584.211   118399013.452       -2775.215          36.000  
C 3  37428659.197   194900832.104        -509.475          41.000  
G12  22351095.774   117455805.159        2947.148          47.000  
G10  22998025.506   120855451.312        2750.089          43.000  
C 6  35997280.840   187447231.875         -19.426          42.000  
C 1  36817328.642   191717447.743        -488.957          43.000  
C 4  37073129.769   193049480.443        -514.769          43.000  
J 1  37221381.578   195599686.720          87.671          44.000  
J 2  36955338.011   194201609.264       -1162.200          46.000  
G25  24960365.521   131167585.105        3274.833          28.000  
G21  22807372.332   119853526.984       -1995.306          45.000  
> 2017 10 10 10 23 45.1980000  0 15                     
G24  19615598.646   103080670.801        -475.244          50.000  
G15  20497125.712   107713122.120       -1627.568          49.000  
G20  20550044.605   107991216.315       -2969.292          47.000  
G18  20988765.189   110296706.684        1496.223          47.000  
G13  22530689.750   118399568.561       -2775.489          36.000  
C 3  37428678.889   194900933.972        -509.407          41.000  
G12  22350983.656   117455215.753        2947.062          47.000  
G10  22997920.814   120854901.278        2750.262          43.000  
C 6  35997281.503   187447235.723         -19.073          42.000  
C 1  36817347.409   191717545.540        -488.887          43.000  
C 4  37073149.654   193049583.414        -514.884          43.000  
J 1  37221378.272   195599669.212          87.775          44.000  
J 2  36955382.133   194201841.691       -1162.080          46.000  
G25  24960242.855   131166930.117        3274.922          28.000  
G21  22807448.284   119853926.099       -1995.459          45.000  
> 2017 10 10 10 23 45.3980000  0 15                     
G24  19615616.725   103080765.900        -475.370          50.000  
G15  20497187.608   107713447.689       -1627.764          49.000  
G20  20550157.683   107991810.236       -2969.492          47.000  
G18  20988708.283   110296407.466        1496.089          47.000  
G13  22530795.272   118400123.672       -2775.081          36.000  
C 3  37428698.390   194901035.848        -509.308          41.000  
G12  22350871.539   117454626.354        2947.085          47.000  
G10  22997816.016   120854351.255        2750.344          43.000  
C 6  35997282.201   187447239.604         -19.306          42.000  
C 1  36817366.116   191717643.354        -488.927          43.000  
C 4  37073169.521   193049686.383        -514.697          43.000  
J 1  37221375.008   195599651.721          87.765          44.000  
J 2  36955426.396   194202074.141       -1162.059          46.000  
G25  24960119.054   131166275.147        3274.730          28.000  
G21  22807524.236   119854325.233       -1995.574          45.000  
> 2017 10 10 10 23 45.5980000  0 15                     
G24  19615634.856   103080860.983        -475.584          50.000  
G15  20497249.591   107713773.236       -1627.883          49.000  
G20  20550270.647   107992404.147       -2969.715          47.000  
G18  20988651.405   110296108.246        1495.890          47.000  
G13  22530900.933   118400678.787       -2775.563          36.000  
C 3  37428718.030   194901137.686        -509.160          41.000  
G12  22350759.246   117454036.944        2946.943          47.000  
G10  22997711.332   120853801.222        2750.065          43.000  
C 6  35997283.082   187447243.450         -19.297          42.000  
C 1  36817384.831   191717741.138        -489.066          43.000  
C 4  37073189.196   193049789.338        -514.873          43.000  
J 1  37221371.641   195599634.209          87.465          44.000  
J 2  36955470.702   194202306.561       -1162.316          46.000  
G25  24959995.498   131165620.130        3275.144          28.000  
G21  22807600.310   119854724.346       -1995.785          45.000  
> 2017 10 10 10 23 45.7980000  0 15                     
G24  19615652.934   103080956.089        -475.514          50.000  
G15  20497311.618   107714098.790       -1627.806          49.000  
G20  20550383.602   107992998.073       -2969.784          47.000  
G18  20988594.552   110295809.019        1495.995          47.000  
G13  22531006.533   118401233.902       -2775.657          36.000  
C 3  37428737.470   194901239.557        -509.456          41.000  
G12  22350647.050   117453447.543        2946.887          47.000  
G10  22997606.631   120853251.194        2750.084          43.000  
C 6  35997283.876   187447247.294         -19.243          42.000  
C 1  36817403.686   191717838.922        -488.923          43.000  
C 4  37073208.967   193049892.275        -514.733          43.000  
J 1  37221368.290   195599616.686          87.575          44.000  
J 2  36955515.034   194202538.980       -1162.138          46.000  
G25  24959872.814   131164965.092        3275.077          28.000  
G21  22807676.332   119855123.475       -1995.643          45.000  
> 2017 10 10 10 23 45.9980000  0 15                     
G24  19615671.039   103081051.195        -475.527          50.000  
G15  20497373.531   107714424.342       -1627.598          49.000  
G20  20550496.627   107993591.992       -2969.479          47.000  
G18  20988537.594   110295509.786        1496.403          47.000  
G13  22531112.168   118401788.971       -2775.022          35.000  
C 3  37428757.040   194901341.371        -508.951          41.000  
G12  22350534.880   117452858.118        2947.256          47.000  
G10  22997501.886   120852701.149        2750.349          43.000  
C 6  35997284.714   187447251.119         -18.903          42.000  
C 1  36817422.463   191717936.685        -488.491          43.000  
C 4  37073228.738   193049995.184        -514.331          43.000  
J 1  37221365.053   195599599.153          87.800          44.000  
J 2  36955559.227   194202771.381       -1161.862          46.000  
G25  24959749.040   131164310.058        3275.318          28.000  
G21  22807752.223   119855522.607       -1995.575          45.000  
> 2017 10 10 10 23 46.1980000  0 15                     
G24  19615689.283   103081146.352        -475.980          50.000  
G15  20497435.549   107714749.936       -1628.209          49.000  
G20  20550609.704   107994185.978       -2970.217          47.000  
G18  20988480.724   110295210.633        1495.693          47.000  
G13  22531217.794   118402344.097       -2775.552          35.000  
C 3  37428776.532   194901443.249        -509.575          41.000  
G12  22350422.780   117452268.746        2946.682          47.000  
G10  22997397.316   120852151.147        2749.845          43.000  
C 6  35997285.534   187447254.983         -19.510          42.000  
C 1  36817441.265   191718034.491        -489.180          43.000  
C 4  37073248.492   193050098.142        -514.903          43.000  
J 1  37221361.711   195599581.652          87.311          44.000  
J 2  36955603.402   194203003.822       -1162.333          46.000  
G25  24959626.251   131163655.050        3274.917          28.000  
G21  22807828.149   119855921.782       -1996.108          45.000  
> 2017 10 10 10 23 46.3980000  0 15                     
G24  19615707.230   103081241.534        -476.153          50.000  
G15  20497497.567   107715075.540       -1628.248          49.000  
G20  20550722.808   107994779.968       -2970.314          47.000  
G18  20988423.705   110294911.487        1495.253          47.000  
G13  22531323.472   118402899.241       -2775.835          35.000  
C 3  37428796.199   194901545.118        -509.815          41.000  
G12  22350310.645   117451679.382        2946.657          47.000  
G10  22997292.676   120851601.158        2749.858          43.000  
C 6  35997286.415   187447258.834         -19.297          42.000  
C 1  36817460.059   191718132.281        -489.062          43.000  
C 4  37073268.228   193050201.102        -515.015          43.000  
J 1  37221358.274   195599564.152          87.329          44.000  
J 2  36955647.586   194203236.269       -1162.483          46.000  
G25  24959501.762   131163000.033        3275.062          29.000  
G21  22807904.215   119856320.978       -1996.250          45.000  
> 2017 10 10 10 23 46.5980000  0 15                     
G24  19615725.492   103081336.732        -475.916          50.000  
G15  20497559.393   107715401.150       -1627.894          49.000  
G20  20550835.798   107995373.978       -2969.933          47.000  
G18  20988366.818   110294612.324        1496.039          47.000  
G13  22531429.064   118403454.382       -2775.704          35.000  
C 3  37428815.682   194901646.980        -509.267          41.000  
G12  22350198.475   117451090.014        2947.038          47.000  
G10  22997188.149   120851051.176        2750.055          43.000  
C 6  35997287.209   187447262.687         -18.886          42.000  
C 1  36817478.958   191718230.087        -488.759          43.000  
C 4  37073288.017   193050304.047        -514.617          43.000  
J 1  37221354.923   195599546.649          87.674          44.000  
J 2  36955691.953   194203468.699       -1161.887          46.000  
G25  24959378.144   131162345.011        3274.954          29.000  
G21  22807980.080   119856720.178       -1995.892          45.000  
> 2017 10 10 10 23 46.7980000  0 15                     
G24  19615743.562   103081431.904        -475.855          50.000  
G15  20497621.403   107715726.727       -1627.748          49.000  
G20  20550948.945   107995967.966       -2969.881          47.000  
G18  20988309.886   110294313.164        1496.080          47.000  
G13  22531534.768   118404009.485       -2775.665          35.000  
C 3  37428835.165   194901748.797        -509.032          41.000  
G12  22350086.340   117450500.625        2947.079          47.000  
G10  22997083.517   120850501.151        2750.208          43.000  
C 6  35997287.925   187447266.513         -19.081          42.000  
C 1  36817497.665   191718327.833        -488.565          43.000  
C 4  37073307.936   193050406.958        -514.310          43.000  
J 1  37221351.660   195599529.108          87.799          44.000  
J 2  36955736.233   194203701.112       -1161.897          46.000  
G25  24959254.771   131161689.901        3275.705          29.000  
G21  22808055.979   119857119.353       -1995.838          45.000  
> 2017 10 10 10 23 46.9980000  0 15                     
G24  19615761.727   103081527.079        -475.899          50.000  
G15  20497683.456   107716052.300       -1627.865          49.000  
G20  20551061.970   107996561.947       -2969.856          47.000  
G18  20988252.938   110294014.001        1495.778          47.000  
G13  22531640.403   118404564.549       -2775.378          35.000  
C 3  37428854.674   194901850.598        -508.874          41.000  
G12  22349974.248   117449911.222        2946.918          47.000  
G10  22996978.886   120849951.109        2750.250          43.000  
C 6  35997288.727   187447270.301         -19.135          42.000  
C 1  36817516.520   191718425.574        -488.716          43.000  
C 4  37073327.629   193050509.846        -514.418          43.000  
J 1  37221348.345   195599511.545          87.948          44.000  
J 2  36955780.470   194203933.495       -1162.008          46.000  
G25  24959131.110   131161034.804        3275.680          29.000  
G21  22808131.879   119857518.530       -1995.893          45.000  
> 2017 10 10 10 23 47.1980000  0 15                     
G24  19615779.762   103081622.264        -476.004          50.000  
G15  20497745.352   107716377.870       -1627.957          49.000  
G20  20551174.987   107997155.943       -2969.950          47.000  
G18  20988196.032   110293714.832        1495.751          47.000  
G13  22531745.968   118405119.622       -2775.437          35.000  
C 3  37428874.236   194901952.372        -508.799          41.000  
G12  22349862.209   117449321.806        2947.074          47.000  
G10  22996874.184   120849401.083        2750.065          43.000  
C 6  35997289.504   187447274.075         -18.832          42.000  
C 1  36817535.278   191718523.296        -488.658          43.000  
C 4  37073347.400   193050612.715        -514.249          43.000  
J 1  37221345.029   195599493.981          87.791          44.000  
J 2  36955824.732   194204165.864       -1161.899          46.000  
G25  24959006.708   131160379.693        3275.776          29.000  
G21  22808207.770   119857917.695       -1995.788          45.000  
> 2017 10 10 10 23 47.3980000  0 15                     
G24  19615798.102   103081717.437        -475.625          50.000  
G15  20497807.335   107716703.410       -1627.449          49.000  
G20  20551288.116   107997749.921       -2969.589          47.000  
G18  20988139.084   110293415.643        1496.041          47.000  
G13  22531851.542   118405674.672       -2774.960          35.000  
C 3  37428893.675   194902054.131        -508.572          41.000  
G12  22349750.065   117448732.378        2947.292          47.000  
G10  22996769.509   120848851.016        2750.452          43.000  
C 6  35997290.402   187447277.828         -18.600          42.000  
C 1  36817554.081   191718621.002        -488.411          43.000  
C 4  37073367.145   193050715.582        -514.166          43.000  
J 1  37221341.687   195599476.375          88.229          44.000  
J 2  36955869.056   194204398.208       -1161.550          46.000  
G25  24958882.244   131159724.547        3275.930          29.000  
G21  22808283.644   119858316.854       -1995.562          45.000  
> 2017 10 10 10 23 47.5980000  0 15                     
G24  19615816.128   103081812.648        -476.076          50.000  
G15  20497869.239   107717028.977       -1627.725          49.000  
G20  20551401.176   107998343.928       -2969.938          47.000  
G18  20988082.135   110293116.481        1495.871          47.000  
G13  22531957.142   118406229.732       -2775.206          35.000  
C 3  37428913.228   194902155.895        -508.759          41.000  
G12  22349637.826   117448142.953        2947.181          47.000  
G10  22996664.773   120848300.959        2750.496          43.000  
C 6  35997291.092   187447281.576         -18.722          42.000  
C 1  36817572.866   191718718.693        -488.594          43.000  
C 4  37073386.820   193050818.442        -514.292          43.000  
J 1  37221338.267   195599458.786          88.057          44.000  
J 2  36955913.187   194204630.560       -1161.694          46.000  
G25  24958758.496   131159069.395        3275.834          29.000  
G21  22808359.639   119858716.042       -1995.837          45.000  
> 2017 10 10 10 23 47.7980000  0 16                     
G24  19615834.163   103081907.862        -476.312          50.000  
G15  20497931.196   107717354.544       -1627.952          49.000  
G20  20551514.297   107998937.948       -2970.215          47.000  
G18  20988025.177   110292817.318        1495.758          47.000  
G13  22532062.742   118406784.798       -2775.484          35.000  
C 3  37428932.799   194902257.653        -508.780          41.000  
G12  22349525.682   117447553.532        2947.081          47.000  
G10  22996560.054   120847750.920        2750.207          43.000  
C 6  35997291.894   187447285.324         -18.926          42.000  
C 1  36817591.704   191718816.372        -488.369          43.000  
C 4  37073406.469   193050921.278        -514.302          43.000  
G 5  24434280.711                       -4070.174          29.000  
J 1  37221334.934   195599441.185          87.918          44.000  
J 2  36955957.362   194204862.904       -1161.830          46.000  
G25  24958634.835   131158414.233        3275.785          29.000  
G21  22808435.539   119859115.215       -1995.936          45.000  
> 2017 10 10 10 23 47.9980000  0 16                     
G24  19615852.259   103082003.110        -476.426          50.000  
G15  20497993.162   107717680.127       -1628.035          49.000  
G20  20551627.244   107999531.996       -2970.399          47.000  
G18  20987968.351   110292518.195        1495.500          47.000  
G13  22532168.368   118407339.835       -2775.325          35.000  
C 3  37428952.430   194902359.421        -508.914          41.000  
G12  22349413.678   117446964.140        2946.833          47.000  
G10  22996455.301   120847200.892        2749.955          43.000  
C 6  35997292.671   187447289.075         -18.753          42.000  
C 1  36817610.428   191718914.075        -488.498          43.000  
C 4  37073426.170   193051024.134        -514.244          43.000  
G 5  24434435.747                       -4070.174          29.000  
J 1  37221331.584   195599423.606          87.699          44.000  
J 2  36956001.730   194205095.264       -1161.869          46.000  
G25  24958511.034   131157759.074        3275.860          29.000  
G21  22808511.474   119859514.434       -1996.137          45.000  
> 2017 10 10 10 23 48.1980000  0 16                     
G24  19615870.442   103082098.360        -476.303          50.000  
G15  20498055.119   107718005.723       -1628.044          49.000  
G20  20551740.339   108000126.042       -2970.171          47.000  
G18  20987911.533   110292219.079        1495.506          47.000  
G13  22532273.890   118407894.917       -2775.188          35.000  
C 3  37428971.948   194902461.165        -508.721          41.000  
G12  22349301.673   117446374.742        2946.913          47.000  
G10  22996350.660   120846650.864        2750.053          43.000  
C 6  35997293.421   187447292.826         -18.906          42.000  
C 1  36817629.204   191719011.774        -488.337          43.000  
C 4  37073446.011   193051126.974        -514.064          43.000  
G 5  24434595.574                       -4070.174          28.000  
J 1  37221328.259   195599406.007          87.960          44.000  
J 2  36956045.905   194205327.619       -1161.809          46.000  
G25  24958387.687   131157103.894        3276.052          29.000  
G21  22808587.373   119859913.650       -1996.150          45.000  
> 2017 10 10 10 23 48.3980000  0 15                     
G24  19615888.538   103082193.649        -476.453          50.000  
G15  20498116.998   107718331.332       -1628.184          49.000  
G20  20551853.434   108000720.134       -2970.438          47.000  
G18  20987854.654   110291919.985        1495.266          47.000  
G13  22532379.315   118408449.994       -2774.976          35.000  
C 3  37428991.493   194902562.948        -508.962          41.000  
G12  22349189.591   117445785.357        2946.802          47.000  
G10  22996246.073   120846100.839        2750.010          43.000  
C 6  35997294.084   187447296.576         -18.882          42.000  
C 1  36817647.885   191719109.493        -488.566          43.000  
C 4  37073465.834   193051229.833        -514.224          43.000  
J 1  37221324.874   195599388.423          88.066          44.000  
J 2  36956090.220   194205559.980       -1161.857          46.000  
G25  24958263.747   131156448.709        3275.947          29.000  
G21  22808663.386   119860312.892       -1996.259          45.000  
> 2017 10 10 10 23 48.5980000  0 15                     
G24  19615906.582   103082288.961        -476.600          50.000  
G15  20498178.972   107718656.954       -1628.151          49.000  
G20  20551966.537   108001314.240       -2970.731          47.000  
G18  20987797.792   110291620.898        1495.324          47.000  
G13  22532484.898   118409005.080       -2775.453          35.000  
C 3  37429011.159   194902664.713        -508.819          41.000  
G12  22349077.403   117445195.975        2946.967          47.000  
G10  22996141.485   120845550.836        2750.036          43.000  
C 6  35997294.844   187447300.324         -18.713          42.000  
C 1  36817666.609   191719207.185        -488.533          43.000  
C 4  37073485.492   193051332.703        -514.589          43.000  
J 1  37221321.419   195599370.854          87.834          44.000  
J 2  36956134.447   194205792.348       -1161.863          46.000  
G25  24958140.043   131155793.583        3275.595          29.000  
G21  22808739.138   119860712.148       -1996.333          45.000  
> 2017 10 10 10 23 48.7980000  0 15                     
G24  19615924.695   103082384.302        -476.854          50.000  
G15  20498240.955   107718982.600       -1628.373          49.000  
G20  20552079.536   108001908.364       -2970.646          47.000  
G18  20987740.809   110291321.845        1495.234          47.000  
G13  22532590.489   118409560.180       -2775.573          35.000  
C 3  37429030.651   194902766.492        -509.045          41.000  
G12  22348965.451   117444606.623        2946.771          47.000  
G10  22996036.853   120845000.849        2749.864          43.000  
C 6  35997295.620   187447304.097         -18.910          42.000  
C 1  36817685.403   191719304.907        -488.598          43.000  
C 4  37073505.298   193051435.558        -514.290          43.000  
J 1  37221318.016   195599353.287          87.715          44.000  
J 2  36956178.666   194206024.732       -1162.050          46.000  
G25  24958015.570   131155138.385        3275.961          29.000  
G21  22808815.142   119861111.433       -1996.566          45.000  
> 2017 10 10 10 23 48.9980000  0 15                     
G24  19615942.869   103082479.667        -476.819          50.000  
G15  20498302.956   107719308.246       -1628.269          49.000  
G20  20552192.736   108002502.520       -2970.736          47.000  
G18  20987683.982   110291022.807        1495.041          47.000  
G13  22532696.115   118410115.284       -2775.595          35.000  
C 3  37429050.291   194902868.254        -508.726          41.000  
G12  22348853.316   117444017.272        2946.803          47.000  
G10  22995932.204   120844450.873        2749.890          43.000  
C 6  35997296.466   187447307.862         -18.850          42.000  
C 1  36817704.188   191719402.629        -488.645          43.000  
C 4  37073525.017   193051538.443        -514.429          43.000  
J 1  37221314.735   195599335.723          87.765          44.000  
J 2  36956223.068   194206257.112       -1161.776          46.000  
G25  24957892.834   131154483.232        3275.920          29.000  
G21  22808890.963   119861510.730       -1996.615          45.000  
> 2017 10 10 10 23 49.1980000  0 15                     
G24  19615961.026   103082575.052        -476.810          50.000  
G15  20498364.913   107719633.908       -1628.162          49.000  
G20  20552305.857   108003096.696       -2970.920          47.000  
G18  20987627.085   110290723.779        1495.126          47.000  
G13  22532801.741   118410670.377       -2775.333          35.000  
C 3  37429069.870   194902970.040        -508.654          41.000  
G12  22348741.138   117443427.936        2946.780          47.000  
G10  22995827.503   120843900.901        2750.094          43.000  
C 6  35997297.060   187447311.628         -18.734          42.000  
C 1  36817722.956   191719500.343        -488.579          43.000  
C 4  37073544.814   193051641.322        -514.362          43.000  
J 1  37221311.411   195599318.155          87.954          44.000  
J 2  36956267.348   194206489.499       -1161.793          46.000  
G25  24957767.498   131153828.061        3275.729          29.000  
G21  22808966.846   119861910.041       -1996.385          45.000  
> 2017 10 10 10 23 49.3980000  0 15                     
G24  19615979.271   103082670.455        -477.040          50.000  
G15  20498426.861   107719959.584       -1628.446          49.000  
G20  20552418.873   108003690.879       -2971.081          47.000  
G18  20987570.154   110290424.768        1494.974          47.000  
G13  22532907.289   118411225.496       -2775.574          35.000  
C 3  37429089.467   194903071.825        -509.018          41.000  
G12  22348628.968   117442838.601        2946.673          47.000  
G10  22995722.828   120843350.941        2749.662          43.000  
C 6  35997297.775   187447315.380         -18.844          42.000  
C 1  36817741.706   191719598.054        -488.440          43.000  
C 4  37073564.454   193051744.185        -514.469          43.000  
J 1  37221308.104   195599300.597          87.786          44.000  
J 2  36956311.515   194206721.883       -1161.960          46.000  
G25  24957643.933   131153172.850        3276.043          29.000  
G21  22809042.903   119862309.370       -1996.761          45.000  
> 2017 10 10 10 23 49.5980000  0 15                     
G24  19615997.340   103082765.886        -476.911          50.000  
G15  20498488.757   107720285.271       -1628.254          49.000  
G20  20552532.020   108004285.086       -2970.911          47.000  
G18  20987513.223   110290125.781        1495.006          47.000  
G13  22533012.837   118411780.616       -2775.545          35.000  
C 3  37429108.950   194903173.610        -508.886          41.000  
G12  22348516.832   117442249.288        2946.651          47.000  
G10  22995618.170   120842800.984        2750.021          43.000  
C 6  35997298.517   187447319.144         -18.512          42.000  
C 1  36817760.491   191719695.783        -488.565          43.000  
C 4  37073584.260   193051847.057        -514.139          43.000  
J 1  37221304.736   195599283.040          87.900          44.000  
J 2  36956355.777   194206954.270       -1161.696          46.000  
G25  24957519.382   131152517.697        3275.706          29.000  
G21  22809118.846   119862708.710       -1996.625          45.000  
> 2017 10 10 10 23 49.7980000  0 15                     
G24  19616015.532   103082861.309        -477.212          50.000  
G15  20498550.679   107720610.937       -1628.320          49.000  
G20  20552645.237   108004879.287       -2971.090          47.000  
G18  20987456.300   110289826.775        1494.961          47.000  
G13  22533118.550   118412335.697       -2775.324          35.000  
C 3  37429128.521   194903275.352        -508.883          41.000  
G12  22348404.776   117441659.939        2946.772          47.000  
G10  22995513.512   120842251.012        2749.841          43.000  
C 6  35997299.145   187447322.880         -18.769          42.000  
C 1  36817779.355   191719793.468        -488.552          43.000  
C 4  37073603.918   193051949.917        -514.325          43.000  
J 1  37221301.412   195599265.451          87.920          44.000  
J 2  36956400.109   194207186.644       -1161.906          46.000  
G25  24957395.189   131151862.452        3276.317          29.000  
G21  22809194.746   119863108.042       -1996.668          45.000  
> 2017 10 10 10 23 49.9980000  0 15                     
G24  19616033.768   103082956.791        -477.674          50.000  
G15  20498612.636   107720936.650       -1628.733          49.000  
G20  20552758.289   108005473.539       -2971.530          47.000  
G18  20987399.430   110289527.826        1494.576          47.000  
G13  22533223.984   118412890.851       -2775.690          35.000  
C 3  37429147.978   194903377.142        -508.957          41.000  
G12  22348292.754   117441070.644        2946.318          47.000  
G10  22995408.820   120841701.081        2749.503          43.000  
C 6  35997299.764   187447326.653         -18.880          42.000  
C 1  36817798.079   191719891.194        -488.999          43.000  
C 4  37073623.768   193052052.787        -514.643          43.000  
J 1  37221297.948   195599247.897          87.717          44.000  
J 2  36956444.468   194207419.039       -1162.175          46.000  
G25  24957270.699   131151207.275        3275.859          29.000  
G21  22809270.811   119863507.427       -1997.010          45.000  
> 2017 10 10 10 23 50.1980000  0 15                     
G24  19616051.890   103083052.301        -477.652          50.000  
G15  20498674.550   107721262.380       -1628.478          49.000  
G20  20552871.410   108006067.816       -2971.362          47.000  
G18  20987342.621   110289228.900        1494.562          47.000  
G13  22533329.611   118413445.999       -2775.713          35.000  
C 3  37429167.661   194903478.946        -509.105          41.000  
G12  22348180.724   117440481.364        2946.328          47.000  
G10  22995304.215   120841151.174        2749.548          43.000  
C 6  35997300.550   187447330.436         -18.873          42.000  
C 1  36817816.986   191719988.913        -488.372          43.000  
C 4  37073643.547   193052155.674        -514.505          43.000  
J 1  37221294.572   195599230.356          87.883          44.000  
J 2  36956488.660   194207651.456       -1162.100          46.000  
G25  24957146.759   131150552.087        3275.909          29.000  
G21  22809346.850   119863906.832       -1997.059          45.000  
> 2017 10 10 10 23 50.3980000  0 15                     
G24  19616070.090   103083147.816        -477.502          50.000  
G15  20498736.524   107721588.122       -1628.603          49.000  
G20  20552984.618   108006662.107       -2971.384          47.000  
G18  20987285.768   110288929.978        1494.566          47.000  
G13  22533435.167   118414001.135       -2775.800          35.000  
C 3  37429187.267   194903580.724        -508.845          41.000  
G12  22348068.615   117439892.084        2946.436          47.000  
G10  22995199.662   120840601.254        2749.565          43.000  
C 6  35997301.222   187447334.207         -18.579          42.000  
C 1  36817835.754   191720086.650        -488.468          43.000  
C 4  37073663.319   193052258.546        -514.251          43.000  
J 1  37221291.195   195599212.813          87.932          44.000  
J 2  36956532.871   194207883.857       -1161.945          46.000  
G25  24957021.396   131149896.899        3276.131          29.000  
G21  22809422.907   119864306.246       -1997.090          45.000  
> 2017 10 10 10 23 50.5980000  0 15                     
G24  19616088.343   103083243.367        -477.642          50.000  
G15  20498798.481   107721913.872       -1628.710          49.000  
G20  20553097.678   108007256.426       -2971.609          47.000  
G18  20987228.837   110288631.066        1494.743          47.000  
G13  22533540.776   118414556.296       -2775.840          35.000  
C 3  37429206.863   194903682.520        -508.792          41.000  
G12  22347956.427   117439302.813        2946.368          47.000  
G10  22995095.065   120840051.357        2749.511          43.000  
C 6  35997301.981   187447337.987         -18.923          42.000  
C 1  36817854.556   191720184.387        -488.834          43.000  
C 4  37073682.994   193052361.434        -514.316          43.000  
J 1  37221287.914   195599195.279          87.795          44.000  
J 2  36956577.107   194208116.264       -1161.840          46.000  
G25  24956896.688   131149241.707        3275.677          28.000  
G21  22809498.851   119864705.672       -1997.156          45.000  
> 2017 10 10 10 23 50.7980000  0 15                     
G24  19616106.509   103083338.924        -477.909          50.000  
G15  20498860.525   107722239.612       -1628.710          49.000  
G20  20553210.808   108007850.741       -2971.772          47.000  
G18  20987172.001   110288332.181        1494.408          47.000  
G13  22533646.367   118415111.430       -2775.733          35.000  
C 3  37429226.329   194903784.296        -508.995          41.000  
G12  22347844.432   117438713.537        2946.297          47.000  
G10  22994990.337   120839501.436        2749.597          43.000  
C 6  35997302.740   187447341.735         -18.613          42.000  
C 1  36817873.228   191720282.089        -488.748          43.000  
C 4  37073702.739   193052464.302        -514.141          43.000  
J 1  37221284.538   195599177.730          87.775          44.000  
J 2  36956621.352   194208348.673       -1162.103          46.000  
G25  24956773.219   131148586.482        3276.189          28.000  
G21  22809574.829   119865105.100       -1997.132          45.000  
> 2017 10 10 10 23 50.9980000  0 15                     
G24  19616124.736   103083434.497        -477.821          50.000  
G15  20498922.474   107722565.378       -1628.651          49.000  
G20  20553323.859   108008445.078       -2971.625          47.000  
G18  20987115.148   110288033.299        1494.475          47.000  
G13  22533751.958   118415666.610       -2776.120          34.000  
C 3  37429245.891   194903886.072        -508.572          41.000  
G12  22347732.253   117438124.271        2946.487          47.000  
G10  22994885.619   120838951.537        2749.708          43.000  
C 6  35997303.377   187447345.503         -18.638          42.000  
C 1  36817891.935   191720379.787        -488.100          43.000  
C 4  37073722.484   193052567.191        -514.386          43.000  
J 1  37221281.135   195599160.189          87.760          44.000  
J 2  36956665.675   194208581.076       -1161.893          46.000  
G25  24956647.822   131147931.237        3276.382          28.000  
G21  22809650.816   119865504.551       -1997.063          45.000  
> 2017 10 10 10 23 51.1980000  0 15                     
G24  19616142.919   103083530.093        -478.117          50.000  
G15  20498984.561   107722891.141       -1628.934          49.000  
G20  20553436.936   108009039.428       -2971.819          47.000  
G18  20987058.313   110287734.436        1494.004          47.000  
G13  22533857.462   118416221.708       -2775.740          34.000  
C 3  37429265.348   194903987.861        -509.004          41.000  
G12  22347620.170   117437535.011        2946.333          47.000  
G10  22994781.013   120838401.656        2749.235          43.000  
C 6  35997304.110   187447349.259         -18.674          42.000  
C 1  36817910.755   191720477.510        -488.316          43.000  
C 4  37073742.211   193052670.053        -514.462          43.000  
J 1  37221277.767   195599142.632          87.634          44.000  
J 2  36956709.938   194208813.476       -1162.021          46.000  
G25  24956523.411   131147276.044        3275.903          28.000  
G21  22809726.820   119865904.019       -1997.469          45.000  
> 2017 10 10 10 23 51.3980000  0 16                     
G24  19616160.980   103083625.659        -477.677          50.000  
G15  20499046.571   107723216.872       -1628.486          49.000  
G20  20553550.171   108009633.760       -2971.500          47.000  
G18  20987001.443   110287435.528        1494.578          47.000  
G13  22533963.080   118416776.830       -2774.958          34.000  
C 3  37429284.840   194904089.590        -508.580          41.000  
G12  22347508.062   117436945.720        2946.647          47.000  
G10  22994676.382   120837851.712        2749.756          43.000  
C 6  35997304.877   187447352.980         -18.467          42.000  
C 1  36817929.557   191720575.193        -488.370          43.000  
C 4  37073762.034   193052772.875        -513.793          43.000  
J 1  37221274.434   195599125.039          88.228          44.000  
J 2  36956754.183   194209045.841       -1161.646          46.000  
C 7  38262301.006   199241810.168         767.053          39.000  
G25  24956398.249   131146620.749        3276.653          28.000  
G21  22809802.624   119866303.448       -1997.063          45.000  
> 2017 10 10 10 23 51.5980000  0 16                     
G24  19616179.294   103083721.218        -477.647          50.000  
G15  20499108.475   107723542.579       -1628.426          49.000  
G20  20553663.309   108010228.067       -2971.537          47.000  
G18  20986944.564   110287136.607        1494.688          47.000  
G13  22534068.645   118417331.903       -2774.742          34.000  
C 3  37429304.227   194904191.268        -508.140          41.000  
G12  22347395.857   117436356.389        2946.785          47.000  
G10  22994571.785   120837301.751        2749.847          43.000  
C 6  35997305.567   187447356.662         -18.163          42.000  
C 1  36817948.194   191720672.816        -488.195          43.000  
C 4  37073781.692   193052875.665        -513.854          43.000  
J 1  37221271.110   195599107.413          88.239          44.000  
J 2  36956798.288   194209278.163       -1161.500          46.000  
C 7  38262271.542   199241656.764         767.139          39.000  
G25  24956273.114   131145965.400        3277.084          28.000  
G21  22809878.576   119866702.858       -1997.102          45.000  
> 2017 10 10 10 23 51.7980000  0 16                     
G24  19616197.390   103083816.792        -477.776          50.000  
G15  20499170.502   107723868.284       -1628.417          49.000  
G20  20553776.387   108010822.384       -2971.423          47.000  
G18  20986887.598   110286837.704        1494.700          47.000  
G13  22534174.245   118417887.001       -2775.217          34.000  
C 3  37429323.754   194904292.950        -507.844          41.000  
G12  22347283.774   117435767.067        2946.780          47.000  
G10  22994467.040   120836751.794        2749.934          43.000  
C 6  35997306.247   187447360.332         -18.288          42.000  
C 1  36817966.971   191720770.437        -487.925          43.000  
C 4  37073801.376   193052978.443        -513.988          43.000  
J 1  37221267.847   195599089.776          88.395          44.000  
J 2  36956842.516   194209510.485       -1161.414          46.000  
C 7  38262242.025   199241503.373         767.267          39.000  
G25  24956149.426   131145310.124        3276.748          28.000  
G21  22809954.554   119867102.262       -1996.874          45.000  
> 2017 10 10 10 23 51.9980000  0 16                     
G24  19616215.546   103083912.362        -477.869          50.000  
G15  20499232.450   107724193.987       -1628.615          49.000  
G20  20553889.473   108011416.712       -2971.715          47.000  
G18  20986830.780   110286538.794        1494.385          47.000  
G13  22534279.880   118418442.058       -2775.570          35.000  
C 3  37429343.141   194904394.647        -508.492          41.000  
G12  22347171.639   117435177.739        2946.603          47.000  
G10  22994362.391   120836201.815        2749.976          43.000  
C 6  35997306.884   187447363.983         -18.445          42.000  
C 1  36817985.651   191720868.055        -488.030          43.000  
C 4  37073821.165   193053081.202        -513.730          43.000  
J 1  37221264.453   195599072.135          88.251          44.000  
J 2  36956886.630   194209742.799       -1161.721          46.000  
C 7  38262212.473   199241349.970         767.059          39.000  
G25  24956024.361   131144654.721        3276.973          28.000  
G21  22810030.550   119867501.685       -1997.076          45.000  
> 2017 10 10 10 23 52.1980000  0 16                     
G24  19616233.913   103084007.978        -478.159          50.000  
G15  20499294.416   107724519.728       -1628.854          49.000  
G20  20554002.646   108012011.079       -2971.830          47.000  
G18  20986774.005   110286239.922        1494.337          47.000  
G13  22534385.532   118418997.134       -2774.926          34.000  
C 3  37429362.598   194904496.343        -508.631          41.000  
G12  22347059.521   117434588.442        2946.446          47.000  
G10  22994257.812   120835651.893        2749.603          43.000  
C 6  35997307.591   187447367.658         -18.442          42.000  
C 1  36818004.419   191720965.692        -488.195          43.000  
C 4  37073840.866   193053183.996        -513.985          43.000  
J 1  37221261.067   195599054.511          88.121          44.000  
J 2  36956930.910   194209975.126       -1161.654          46.000  
C 7  38262183.017   199241196.590         766.834          39.000  
G25  24955899.609   131143999.467        3276.056          28.000  
G21  22810106.519   119867901.146       -1997.469          45.000  
> 2017 10 10 10 23 52.3980000  0 16                     
G24  19616252.096   103084103.640        -478.578          50.000  
G15  20499356.434   107724845.494       -1629.030          49.000  
G20  20554115.854   108012605.490       -2972.252          47.000  
G18  20986717.214   110285941.093        1493.925          47.000  
G13  22534491.158   118419552.280       -2775.776          34.000  
C 3  37429382.107   194904598.051        -508.635          41.000  
G12  22346947.491   117433999.175        2946.095          47.000  
G10  22994153.189   120835101.984        2749.276          43.000  
C 6  35997308.237   187447371.358         -18.673          42.000  
C 1  36818023.091   191721063.333        -488.356          43.000  
C 4  37073860.681   193053286.802        -514.163          43.000  
J 1  37221257.656   195599036.919          87.817          44.000  
J 2  36956975.164   194210207.487       -1161.954          46.000  
C 7  38262153.535   199241043.236         766.528          39.000  
G25  24955775.721   131143344.112        3276.641          28.000  
G21  22810182.472   119868300.632       -1997.690          45.000  
> 2017 10 10 10 23 52.5980000  0 16                     
G24  19616270.384   103084199.318        -478.506          50.000  
G15  20499418.348   107725171.275       -1628.961          49.000  
G20  20554228.993   108013199.921       -2972.360          47.000  
G18  20986660.396   110285642.274        1493.938          47.000  
G13  22534596.715   118420107.410       -2775.681          34.000  
C 3  37429401.651   194904699.780        -508.645          41.000  
G12  22346835.486   117433409.913        2946.147          47.000  
G10  22994048.636   120834552.079        2749.493          43.000  
C 6  35997308.926   187447375.048         -18.375          42.000  
C 1  36818041.893   191721160.995        -488.303          43.000  
C 4  37073880.487   193053389.621        -513.980          43.000  
J 1  37221254.523   195599019.325          87.869          44.000  
J 2  36957019.479   194210439.849       -1161.900          46.000  
C 7  38262124.166   199240889.886         766.589          39.000  
G25  24955651.310   131142688.789        3276.322          28.000  
G21  22810258.424   119868700.138       -1997.577          45.000  
> 2017 10 10 10 23 52.7980000  0 16                     
G24  19616288.637   103084295.036        -478.733          50.000  
G15  20499480.357   107725497.089       -1629.130          49.000  
G20  20554342.140   108013794.388       -2972.595          47.000  
G18  20986603.447   110285343.488        1493.871          47.000  
G13  22534702.332   118420662.544       -2776.155          34.000  
C 3  37429421.257   194904801.528        -508.937          41.000  
G12  22346723.360   117432820.689        2945.958          47.000  
G10  22993944.040   120834002.214        2749.100          43.000  
C 6  35997309.371   187447378.773         -18.608          42.000  
C 1  36818060.661   191721258.682        -488.655          43.000  
C 4  37073900.240   193053492.455        -514.230          43.000  
J 1  37221251.086   195599001.754          87.702          44.000  
J 2  36957063.697   194210672.230       -1162.063          46.000  
C 7  38262094.693   199240736.541         766.895          39.000  
G25  24955526.262   131142033.480        3276.407          28.000  
G21  22810334.507   119869099.679       -1997.798          45.000  
> 2017 10 10 10 23 52.9980000  0 16                     
G24  19616306.776   103084390.812        -479.071          50.000  
G15  20499542.427   107725822.940       -1629.417          49.000  
G20  20554455.261   108014388.901       -2972.813          47.000  
G18  20986546.603   110285044.757        1493.547          47.000  
G13  22534807.906   118421217.736       -2776.067          34.000  
C 3  37429440.871   194904903.290        -508.788          41.000  
G12  22346611.304   117432231.493        2945.762          47.000  
G10  22993839.304   120833452.375        2749.131          43.000  
C 6  35997310.104   187447382.524         -18.781          42.000  
C 1  36818079.516   191721356.383        -488.707          43.000  
C 4  37073919.924   193053595.317        -514.420          43.000  
J 1  37221247.796   195598984.212          87.603          44.000  
J 2  36957107.951   194210904.646       -1162.184          46.000  
C 7  38262065.306   199240583.258         766.455          40.000  
G25  24955402.164   131141378.209        3276.266          28.000  
G21  22810410.581   119869499.273       -1998.129          45.000  
> 2017 10 10 10 23 53.1980000  0 16                     
G24  19616325.029   103084486.634        -479.252          50.000  
G15  20499604.411   107726148.823       -1629.437          49.000  
G20  20554568.557   108014983.454       -2972.867          47.000  
G18  20986489.715   110284746.060        1493.497          47.000  
G13  22534913.576   118421772.961       -2776.485          34.000  
C 3  37429460.607   194905005.097        -509.123          41.000  
G12  22346499.221   117431642.333        2945.698          47.000  
G10  22993734.681   120832902.577        2749.017          43.000  
C 6  35997310.776   187447386.291         -18.883          42.000  
C 1  36818098.397   191721454.102        -488.392          43.000  
C 4  37073939.695   193053698.193        -514.333          43.000  
J 1  37221244.367   195598966.693          87.716          44.000  
J 2  36957152.249   194211137.091       -1162.284          46.000  
C 7  38262035.920   199240429.999         766.345          40.000  
G25  24955277.474   131140722.933        3276.334          28.000  
G21  22810486.611   119869898.900       -1998.225          45.000  
> 2017 10 10 10 23 53.3980000  0 16                     
G24  19616343.361   103084582.517        -479.594          50.000  
G15  20499666.394   107726474.767       -1629.811          49.000  
G20  20554681.660   108015578.078       -2973.201          47.000  
G18  20986432.827   110284447.432        1493.037          47.000  
G13  22535019.210   118422328.226       -2776.563          34.000  
C 3  37429480.160   194905106.928        -509.288          41.000  
G12  22346387.173   117431053.225        2945.513          47.000  
G10  22993629.936   120832352.823        2748.816          43.000  
C 6  35997311.631   187447390.100         -18.948          42.000  
C 1  36818117.077   191721551.896        -488.962          43.000  
C 4  37073959.466   193053801.135        -514.744          43.000  
J 1  37221241.043   195598949.231          87.202          44.000  
J 2  36957196.494   194211369.575       -1162.518          46.000  
C 7  38262006.403   199240276.768         766.107          40.000  
G25  24955153.787   131140067.771        3275.403          28.000  
G21  22810562.651   119870298.577       -1998.444          45.000  
> 2017 10 10 10 23 53.5980000  0 16                     
G24  19616361.683   103084678.422        -479.685          50.000  
G15  20499728.403   107726800.721       -1629.850          49.000  
G20  20554794.842   108016172.724       -2973.461          47.000  
G18  20986376.018   110284148.814        1492.893          47.000  
G13  22535124.967   118422883.491       -2776.938          34.000  
C 3  37429499.722   194905208.767        -509.160          41.000  
G12  22346275.047   117430464.133        2945.249          47.000  
G10  22993525.313   120831803.095        2748.434          43.000  
C 6  35997312.320   187447393.924         -18.972          42.000  
C 1  36818135.732   191721649.674        -489.112          43.000  
C 4  37073979.229   193053904.072        -514.961          43.000  
J 1  37221237.762   195598931.764          87.145          44.000  
J 2  36957240.756   194211602.072       -1162.567          46.000  
C 7  38261976.973   199240123.569         766.064          39.000  
G25  24955028.931   131139412.486        3276.503          28.000  
G21  22810638.690   119870698.286       -1998.641          45.000  
> 2017 10 10 10 23 53.7980000  0 16                     
G24  19616379.919   103084774.362        -479.621          50.000  
G15  20499790.334   107727126.694       -1629.722          49.000  
G20  20554908.147   108016767.389       -2973.249          47.000  
G18  20986319.349   110283850.215        1493.184          47.000  
G13  22535230.620   118423438.784       -2776.490          34.000  
C 3  37429519.205   194905310.627        -509.151          41.000  
G12  22346162.990   117429875.052        2945.459          47.000  
G10  22993420.682   120831253.370        2748.718          43.000  
C 6  35997313.000   187447397.749         -19.088          42.000  
C 1  36818154.613   191721747.462        -488.829          43.000  
C 4  37073999.096   193054007.010        -514.636          43.000  
J 1  37221234.552   195598914.311          87.398          44.000  
J 2  36957285.071   194211834.576       -1162.451          46.000  
C 7  38261947.526   199239970.351         766.211          39.000  
G25  24954903.184   131138757.276        3275.960          28.000  
G21  22810714.642   119871098.012       -1998.628          45.000  
> 2017 10 10 10 23 53.9980000  0 16                     
G24  19616398.224   103084870.316        -479.762          50.000  
G15  20499852.431   107727452.669       -1629.760          49.000  
G20  20555021.215   108017362.068       -2973.293          47.000  
G18  20986262.478   110283551.631        1493.045          47.000  
G13  22535336.351   118423994.047       -2776.149          34.000  
C 3  37429538.827   194905412.468        -509.192          41.000  
G12  22346050.916   117429285.967        2945.533          47.000  
G10  22993316.094   120830703.648        2748.781          43.000  
C 6  35997313.742   187447401.562         -18.954          42.000  
C 1  36818173.232   191721845.240        -488.839          43.000  
C 4  37074018.875   193054109.941        -514.561          43.000  
J 1  37221231.254   195598896.846          87.462          44.000  
J 2  36957329.499   194212067.068       -1162.407          46.000  
C 7  38261918.053   199239817.161         766.199          39.000  
G25  24954778.834   131138102.072        3276.026          28.000  
G21  22810790.743   119871497.742       -1998.540          45.000  
> 2017 10 10 10 23 54.1980000  0 16                     
G24  19616416.477   103084966.258        -479.575          50.000  
G15  20499914.388   107727778.636       -1629.604          49.000  
G20  20555134.406   108017956.743       -2973.148          47.000  
G18  20986205.573   110283253.052        1493.034          47.000  
G13  22535441.977   118424549.301       -2775.993          34.000  
C 3  37429558.433   194905514.283        -508.904          41.000  
G12  22345938.790   117428696.878        2945.698          47.000  
G10  22993211.410   120830153.909        2748.977          43.000  
C 6  35997314.475   187447405.369         -18.866          42.000  
C 1  36818191.939   191721942.988        -488.429          43.000  
C 4  37074038.603   193054212.857        -514.226          43.000  
J 1  37221228.008   195598879.368          87.642          44.000  
J 2  36957373.622   194212299.546       -1162.163          46.000  
C 7  38261888.684   199239663.924         766.565          39.000  
G25  24954653.568   131137446.744        3277.035          28.000  
G21  22810866.764   119871897.469       -1998.479          45.000  
> 2017 10 10 10 23 54.3980000  0 16                     
G24  19616434.791   103085062.251        -480.113          50.000  
G15  20499976.467   107728104.631       -1630.122          49.000  
G20  20555247.588   108018551.462       -2973.683          47.000  
G18  20986148.808   110282954.497        1492.486          47.000  
G13  22535547.647   118425104.602       -2776.671          34.000  
C 3  37429578.029   194905616.118        -509.120          41.000  
G12  22345826.707   117428107.810        2945.215          47.000  
G10  22993106.735   120829604.219        2748.294          43.000  
C 6  35997315.138   187447409.187         -19.424          42.000  
C 1  36818210.733   191722040.785        -488.974          43.000  
C 4  37074058.304   193054315.789        -514.728          43.000  
J 1  37221224.605   195598861.906          87.189          44.000  
J 2  36957417.815   194212532.048       -1162.546          46.000  
C 7  38261859.123   199239510.732         765.979          39.000  
G25  24954529.741   131136791.548        3275.954          28.000  
G21  22810942.865   119872297.231       -1999.069          45.000  
> 2017 10 10 10 23 54.5980000  0 16                     
G24  19616452.922   103085158.273        -480.066          50.000  
G15  20500038.624   107728430.660       -1630.162          49.000  
G20  20555360.823   108019146.219       -2973.762          47.000  
G18  20986092.103   110282655.979        1492.482          47.000  
G13  22535653.194   118425659.903       -2776.434          34.000  
C 3  37429597.635   194905717.984        -509.151          41.000  
G12  22345714.694   117427518.782        2945.134          47.000  
G10  22993002.086   120829054.531        2748.289          43.000  
C 6  35997315.810   187447413.006         -19.127          42.000  
C 1  36818229.535   191722138.586        -489.215          43.000  
C 4  37074078.276   193054418.743        -514.747          43.000  
J 1  37221221.124   195598844.468          87.320          44.000  
J 2  36957461.946   194212764.573       -1162.663          46.000  
C 7  38261829.763   199239357.555         765.857          39.000  
G25  24954405.460   131136136.296        3276.301          28.000  
G21  22811018.922   119872697.022       -1999.031          45.000  
> 2017 10 10 10 23 54.7980000  0 17                     
G24  19616471.218   103085254.311        -480.353          50.000  
G15  20500100.765   107728756.677       -1630.192          49.000  
G20  20555474.014   108019740.975       -2973.883          47.000  
G18  20986035.268   110282357.445        1492.582          47.000  
G13  22535758.847   118426215.197       -2776.416          34.000  
C 3  37429617.144   194905819.833        -509.222          41.000  
G12  22345602.681   117426929.730        2945.229          47.000  
G10  22992897.611   120828504.831        2748.510          43.000  
C 6  35997316.499   187447416.820         -19.034          42.000  
C 1  36818248.242   191722236.352        -488.894          43.000  
C 4  37074097.908   193054521.665        -514.679          43.000  
G 5  24439721.723                       -4075.545          29.000  
J 1  37221217.738   195598827.010          87.322          44.000  
J 2  36957506.209   194212997.072       -1162.516          46.000  
C 7  38261800.438   199239204.346         766.180          39.000  
G25  24954280.831   131135481.033        3276.375          27.000  
G21  22811094.996   119873096.813       -1999.056          45.000  
> 2017 10 10 10 23 54.9980000  0 17                     
G24  19616489.550   103085350.367        -480.293          50.000  
G15  20500162.879   107729082.712       -1630.192          49.000  
G20  20555587.222   108020335.749       -2973.825          47.000  
G18  20985978.459   110282058.948        1492.404          47.000  
G13  22535864.516   118426770.514       -2776.750          35.000  
C 3  37429636.671   194905921.680        -509.115          41.000  
G12  22345490.546   117426340.698        2945.221          47.000  
G10  22992793.015   120827955.162        2748.444          43.000  
C 6  35997317.136   187447420.658         -19.199          42.000  
C 1  36818267.080   191722334.137        -488.729          43.000  
C 4  37074117.827   193054624.612        -514.596          43.000  
G 5  24439876.620                       -4075.545          29.000  
J 1  37221214.379   195598809.570          87.357          44.000  
J 2  36957550.463   194213229.587       -1162.436          46.000  
C 7  38261771.096   199239051.177         765.784          39.000  
G25  24954156.978   131134825.801        3276.079          27.000  
G21  22811171.079   119873496.631       -1999.146          45.000  
> 2017 10 10 10 23 55.1980000  0 17                     
G24  19616507.890   103085446.455        -480.572          50.000  
G15  20500224.888   107729408.755       -1630.355          49.000  
G20  20555700.422   108020930.558       -2974.109          47.000  
G18  20985921.702   110281760.468        1492.236          47.000  
G13  22535970.108   118427325.822       -2776.789          35.000  
C 3  37429656.154   194906023.544        -509.486          41.000  
G12  22345378.542   117425751.683        2944.959          47.000  
G10  22992688.488   120827405.504        2748.167          43.000  
C 6  35997317.956   187447424.474         -19.432          42.000  
C 1  36818285.830   191722431.948        -489.053          43.000  
C 4  37074137.650   193054727.551        -514.726          43.000  
G 5  24440033.123                       -4075.545          30.000  
J 1  37221211.151   195598792.136          87.058          44.000  
J 2  36957594.716   194213462.115       -1162.682          46.000  
C 7  38261741.710   199238897.999         765.802          39.000  
G25  24954032.349   131134170.530        3276.237          27.000  
G21  22811247.188   119873896.457       -1999.233          45.000  
> 2017 10 10 10 23 55.3980000  0 17                     
G24  19616526.099   103085542.552        -480.594          50.000  
G15  20500286.915   107729734.805       -1630.209          49.000  
G20  20555813.595   108021525.369       -2974.061          47.000  
G18  20985865.050   110281461.985        1492.437          47.000  
G13  22536075.743   118427881.141       -2776.401          35.000  
C 3  37429675.672   194906125.378        -509.056          41.000  
G12  22345266.511   117425162.661        2945.167          47.000  
G10  22992584.014   120826855.842        2748.327          43.000  
C 6  35997318.742   187447428.283         -19.068          42.000  
C 1  36818304.615   191722529.733        -489.170          43.000  
C 4  37074157.326   193054830.488        -514.639          43.000  
G 5  24440187.356                       -4076.318          30.000  
J 1  37221207.792   195598774.687          87.367          44.000  
J 2  36957639.031   194213694.634       -1162.620          46.000  
C 7  38261712.350   199238744.810         765.991          39.000  
G25  24953907.379   131133515.278        3276.082          27.000  
G21  22811323.262   119874296.298       -1999.096          45.000  
> 2017 10 10 10 23 55.5980000  0 17                     
G24  19616544.413   103085638.664        -480.499          50.000  
G15  20500348.889   107730060.868       -1630.138          49.000  
G20  20555926.821   108022120.203       -2974.024          47.000  
G18  20985808.328   110281163.532        1492.394          47.000  
G13  22536181.395   118428436.451       -2776.149          35.000  
C 3  37429695.382   194906227.235        -509.014          41.000  
G12  22345154.455   117424573.656        2945.200          47.000  
G10  22992479.356   120826306.192        2748.358          43.000  
C 6  35997319.483   187447432.109         -19.107          42.000  
C 1  36818323.461   191722627.502        -488.736          43.000  
C 4  37074177.079   193054933.437        -514.536          43.000  
G 5  24440339.103                       -4068.799          30.000  
J 1  37221204.494   195598757.245          87.401          44.000  
J 2  36957683.276   194213927.145       -1162.454          46.000  
C 7  38261682.946   199238591.641         766.101          39.000  
G25  24953782.802   131132860.011        3276.253          27.000  
G21  22811399.362   119874696.154       -1999.169          45.000  
> 2017 10 10 10 23 55.7980000  0 17                     
G24  19616562.780   103085734.812        -480.794          50.000  
G15  20500410.995   107730386.954       -1630.433          49.000  
G20  20556039.994   108022715.062       -2974.395          47.000  
G18  20985751.431   110280865.104        1492.154          47.000  
G13  22536287.030   118428991.809       -2776.974          35.000  
C 3  37429714.891   194906329.086        -509.272          41.000  
G12  22345042.424   117423984.659        2944.964          47.000  
G10  22992374.803   120825756.545        2748.254          43.000  
C 6  35997320.312   187447435.938         -19.183          42.000  
C 1  36818342.325   191722725.302        -489.050          43.000  
C 4  37074196.754   193055036.388        -515.041          43.000  
G 5  24440495.422                       -4085.888          30.000  
J 1  37221201.213   195598739.818          87.057          44.000  
J 2  36957727.600   194214159.682       -1162.730          46.000  
C 7  38261653.603   199238438.484         765.784          39.000  
G25  24953657.937   131132204.696        3276.571          27.000  
G21  22811475.376   119875096.035       -1999.371          45.000  
> 2017 10 10 10 23 55.9980000  0 17                     
G24  19616581.041   103085830.983        -481.080          50.000  
G15  20500472.978   107730713.049       -1630.642          49.000  
G20  20556153.167   108023309.945       -2974.538          47.000  
G18  20985694.683   110280566.686        1491.926          47.000  
G13  22536392.682   118429547.134       -2777.117          35.000  
C 3  37429734.523   194906430.953        -509.404          41.000  
G12  22344930.411   117423395.680        2944.712          47.000  
G10  22992270.084   120825206.924        2747.817          43.000  
C 6  35997321.010   187447439.761         -19.290          42.000  
C 1  36818361.040   191722823.096        -489.172          43.000  
C 4  37074216.595   193055139.351        -515.237          43.000  
G 5  24440645.372                       -4075.635          30.000  
J 1  37221197.784   195598722.384          86.986          44.000  
J 2  36957771.766   194214392.215       -1162.865          46.000  
C 7  38261624.252   199238285.331         765.326          39.000  
G25  24953532.609   131131549.478        3275.991          27.000  
G21  22811551.380   119875495.938       -1999.790          45.000  
> 2017 10 10 10 23 56.1980000  0 17                     
G24  19616599.364   103085927.142        -480.756          50.000  
G15  20500535.031   107731039.122       -1630.219          49.000  
G20  20556266.358   108023904.814       -2974.213          47.000  
G18  20985637.813   110280268.262        1492.230          47.000  
G13  22536498.212   118430102.440       -2776.351          35.000  
C 3  37429754.085   194906532.784        -509.182          41.000  
G12  22344818.503   117422806.673        2945.213          47.000  
G10  22992165.496   120824657.266        2748.563          43.000  
C 6  35997321.918   187447443.554         -18.814          42.000  
C 1  36818379.895   191722920.867        -488.750          43.000  
C 4  37074236.270   193055242.265        -514.786          43.000  
G 5  24440796.491                       -4077.038          30.000  
J 1  37221194.573   195598704.921          87.644          44.000  
J 2  36957816.029   194214624.718       -1162.398          46.000  
C 7  38261594.857   199238132.134         765.985          39.000  
G25  24953407.735   131130894.159        3276.663          27.000  
G21  22811627.454   119875895.816       -1999.279          45.000  
> 2017 10 10 10 23 56.3980000  0 17                     
G24  19616617.687   103086023.366        -481.029          50.000  
G15  20500597.232   107731365.259       -1630.634          49.000  
G20  20556379.610   108024499.752       -2974.675          47.000  
G18  20985581.100   110279969.896        1491.859          47.000  
G13  22536603.961   118430657.809       -2777.003          35.000  
C 3  37429773.725   194906634.648        -509.303          41.000  
G12  22344706.420   117422217.731        2944.720          47.000  
G10  22992060.996   120824107.672        2747.924          43.000  
C 6  35997322.808   187447447.404         -19.283          42.000  
C 1  36818398.576   191723018.677        -489.123          43.000  
C 4  37074256.102   193055345.206        -514.338          43.000  
G 5  24440946.319                       -4076.384          31.000  
J 1  37221191.293   195598687.521          87.080          44.000  
J 2  36957860.326   194214857.276       -1162.813          46.000  
C 7  38261565.314   199237979.012         765.552          39.000  
G25  24953282.827   131130238.858        3276.492          27.000  
G21  22811703.485   119876295.757       -1999.750          45.000  
> 2017 10 10 10 23 56.5980000  0 17                     
G24  19616636.036   103086119.619        -481.319          50.000  
G15  20500659.346   107731691.404       -1630.870          49.000  
G20  20556492.871   108025094.706       -2974.888          47.000  
G18  20985524.212   110279671.550        1491.545          47.000  
G13  22536709.630   118431213.171       -2776.712          35.000  
C 3  37429793.217   194906736.520        -509.360          41.000  
G12  22344594.390   117421628.786        2944.670          47.000  
G10  22991956.355   120823558.087        2747.813          43.000  
C 6  35997323.663   187447451.250         -19.366          42.000  
C 1  36818417.404   191723116.474        -489.119          43.000  
C 4  37074275.778   193055448.200        -514.928          43.000  
G 5  24441101.076   128438852.4023      -4077.904          31.000  
J 1  37221187.794   195598670.114          86.929          44.000  
J 2  36957904.632   194215089.827       -1162.782          46.000  
C 7  38261535.902   199237825.866         765.411          39.000  
G25  24953158.616   131129583.645        3276.088          27.000  
G21  22811779.515   119876695.716       -1999.941          45.000  
> 2017 10 10 10 23 56.7980000  0 17                     
G24  19616654.376   103086215.862        -481.232          50.000  
G15  20500721.364   107732017.523       -1630.529          49.000  
G20  20556606.044   108025689.647       -2974.604          47.000  
G18  20985467.342   110279373.178        1491.877          47.000  
G13  22536815.318   118431768.523       -2776.869          35.000  
C 3  37429812.883   194906838.375        -509.148          41.000  
G12  22344482.316   117421039.824        2944.951          47.000  
G10  22991851.759   120823008.485        2748.177          43.000  
C 6  35997324.465   187447455.044         -18.758          42.000  
C 1  36818436.172   191723214.258        -488.750          43.000  
C 4  37074295.505   193055551.132        -514.628          43.000  
G 5  24441260.012   128439667.8532      -4076.993          31.000  
J 1  37221184.557   195598652.682          87.138          44.000  
J 2  36957948.964   194215322.354       -1162.417          46.000  
C 7  38261506.324   199237672.710         765.857          39.000  
G25  24953034.728   131128928.293        3276.797          27.000  
G21  22811855.677   119877095.654       -1999.571          45.000  
> 2017 10 10 10 23 56.9980000  0 17                     
G24  19616672.637   103086312.114        -481.331          50.000  
G15  20500783.478   107732343.657       -1630.745          49.000  
G20  20556719.183   108026284.606       -2974.827          47.000  
G18  20985410.655   110279074.828        1491.774          47.000  
G13  22536920.944   118432323.865       -2776.943          35.000  
C 3  37429832.384   194906940.228        -509.545          41.000  
G12  22344370.190   117420450.873        2944.681          47.000  
G10  22991747.127   120822458.873        2747.910          43.000  
C 6  35997325.277   187447458.862         -18.893          42.000  
C 1  36818454.975   191723312.041        -489.027          43.000  
C 4  37074315.267   193055654.061        -514.681          43.000  
G 5  24441413.958   128440483.2992      -4076.990          31.000  
J 1  37221181.241   195598635.231          87.314          44.000  
J 2  36957993.157   194215554.893       -1162.799          46.000  
C 7  38261476.911   199237519.541         765.704          39.000  
G25  24952910.500   131128273.001        3276.604          27.000  
G21  22811931.681   119877495.614       -1999.836          45.000  
> 2017 10 10 10 23 57.1980000  0 17                     
G24  19616691.004   103086408.344        -481.036          50.000  
G15  20500845.636   107732669.744       -1630.301          49.000  
G20  20556832.312   108026879.529       -2974.358          47.000  
G18  20985353.915   110278776.442        1492.059          47.000  
G13  22537026.666   118432879.157       -2776.121          35.000  
C 3  37429851.928   194907042.013        -508.918          41.000  
G12  22344258.107   117419861.874        2945.062          47.000  
G10  22991642.426   120821909.228        2748.439          43.000  
C 6  35997326.036   187447462.629         -18.719          42.000  
C 1  36818473.708   191723409.757        -488.393          43.000  
C 4  37074335.108   193055756.936        -513.966          43.000  
G 5  24441569.571   128441298.7302      -4077.046          31.000  
J 1  37221177.891   195598617.755          87.556          44.000  
J 2  36958037.481   194215787.366       -1162.266          46.000  
C 7  38261447.551   199237366.340         766.443          39.000  
G25  24952786.403   131127617.630        3277.298          27.000  
G21  22812007.651   119877895.533       -1999.518          45.000  
> 2017 10 10 10 23 57.3980000  0 17                     
G24  19616709.292   103086504.576        -481.160          50.000  
G15  20500907.628   107732995.830       -1630.432          49.000  
G20  20556945.495   108027474.467       -2974.652          47.000  
G18  20985297.097   110278478.058        1491.833          47.000  
G13  22537132.292   118433434.436       -2776.384          35.000  
C 3  37429871.446   194907143.781        -508.711          41.000  
G12  22344146.015   117419272.862        2945.060          47.000  
G10  22991537.812   120821359.568        2748.371          43.000  
C 6  35997326.769   187447466.369         -18.550          42.000  
C 1  36818492.423   191723507.472        -488.423          43.000  
C 4  37074354.853   193055859.826        -514.407          43.000  
G 5  24441725.296   128442114.1102      -4076.598          31.000  
J 1  37221174.601   195598600.251          87.530          44.000  
J 2  36958081.665   194216019.833       -1162.311          46.000  
C 7  38261418.139   199237213.137         766.022          39.000  
G25  24952662.515   131126962.233        3277.171          27.000  
G21  22812083.716   119878295.440       -1999.555          45.000  
> 2017 10 10 10 23 57.5980000  0 17                     
G24  19616727.562   103086600.818        -481.228          50.000  
G15  20500969.794   107733321.909       -1630.345          49.000  
G20  20557058.755   108028069.396       -2974.675          47.000  
G18  20985240.332   110278179.661        1491.992          47.000  
G13  22537237.988   118433989.717       -2776.350          35.000  
C 3  37429890.999   194907245.559        -508.928          41.000  
G12  22344033.985   117418683.849        2945.219          47.000  
G10  22991433.259   120820809.892        2748.401          43.000  
C 6  35997327.484   187447470.105         -18.617          42.000  
C 1  36818511.164   191723605.176        -488.371          43.000  
C 4  37074374.694   193055962.664        -514.077          43.000  
G 5  24441879.626   128442929.5072      -4076.464          31.000  
J 1  37221171.172   195598582.738          87.597          44.000  
J 2  36958125.918   194216252.284       -1162.244          46.000  
C 7  38261388.727   199237059.899         766.242          39.000  
G25  24952538.217   131126306.840        3277.095          27.000  
G21  22812159.773   119878695.359       -1999.511          45.000  
> 2017 10 10 10 23 57.7980000  0 17                     
G24  19616745.928   103086697.045        -481.229          50.000  
G15  20501031.838   107733647.971       -1630.313          49.000  
G20  20557171.972   108028664.314       -2974.559          47.000  
G18  20985183.601   110277881.267        1491.942          47.000  
G13  22537343.588   118434544.983       -2776.489          35.000  
C 3  37429910.508   194907347.291        -508.712          41.000  
G12  22343921.955   117418094.824        2945.064          47.000  
G10  22991328.741   120820260.220        2748.406          43.000  
C 6  35997328.156   187447473.814         -18.803          42.000  
C 1  36818529.845   191723702.847        -488.596          43.000  
C 4  37074394.326   193056065.505        -514.193          43.000  
G 5  24442032.656   128443744.9192      -4077.374          31.000  
J 1  37221167.805   195598565.201          87.687          44.000  
J 2  36958170.102   194216484.718       -1162.243          46.000  
C 7  38261359.305   199236906.660         766.138          39.000  
G25  24952413.204   131125651.403        3277.183          27.000  
G21  22812235.830   119879095.266       -1999.624          45.000  
> 2017 10 10 10 23 57.9980000  0 17                     
G24  19616764.277   103086793.326        -481.391          50.000  
G15  20501093.891   107733974.074       -1630.482          49.000  
G20  20557285.198   108029259.289       -2974.865          47.000  
G18  20985126.836   110277582.906        1491.805          47.000  
G13  22537449.319   118435100.268       -2776.671          35.000  
C 3  37429930.061   194907449.046        -508.698          41.000  
G12  22343809.854   117417505.831        2945.014          47.000  
G10  22991224.214   120819710.570        2748.204          43.000  
C 6  35997329.072   187447477.525         -18.587          42.000  
C 1  36818548.595   191723800.544        -488.387          43.000  
C 4  37074414.140   193056168.375        -514.326          43.000  
G 5  24442188.888   128444560.3092      -4077.262          31.000  
J 1  37221164.472   195598547.692          87.598          44.000  
J 2  36958214.417   194216717.169       -1162.199          46.000  
C 7  38261329.954   199236753.425         766.260          39.000  
G25  24952288.513   131124995.975        3277.038          27.000  
G21  22812311.869   119879495.210       -1999.751          45.000  
> 2017 10 10 10 23 58.1980000  0 17                     
G24  19616782.574   103086889.635        -481.586          50.000  
G15  20501155.936   107734300.199       -1630.594          49.000  
G20  20557398.424   108029854.295       -2975.052          47.000  
G18  20985070.061   110277284.579        1491.702          47.000  
G13  22537554.980   118435655.557       -2776.278          35.000  
C 3  37429949.693   194907550.820        -508.559          41.000  
G12  22343697.763   117416916.856        2944.860          47.000  
G10  22991119.670   120819160.942        2748.200          43.000  
C 6  35997329.814   187447481.267         -18.445          42.000  
C 1  36818567.380   191723898.261        -488.534          43.000  
C 4  37074433.859   193056271.228        -514.316          43.000  
G 5  24442346.105   128445375.7212      -4077.371          31.000  
J 1  37221161.165   195598530.193          87.462          44.000  
J 2  36958258.627   194216949.644       -1162.347          46.000  
C 7  38261300.638   199236600.230         766.260          39.000  
G25  24952163.535   131124340.558        3277.200          27.000  
G21  22812388.013   119879895.180       -1999.767          45.000  
> 2017 10 10 10 23 58.3980000  0 17                     
G24  19616800.844   103086985.944        -481.737          50.000  
G15  20501217.962   107734626.314       -1630.738          49.000  
G20  20557511.641   108030449.295       -2975.193          47.000  
G18  20985013.383   110276986.251        1491.498          47.000  
G13  22537660.632   118436210.837       -2776.318          35.000  
C 3  37429969.202   194907652.586        -508.860          41.000  
G12  22343585.680   117416327.869        2944.775          47.000  
G10  22991015.056   120818611.301        2748.223          43.000  
C 6  35997330.494   187447484.983         -18.510          42.000  
C 1  36818586.192   191723995.947        -488.502          43.000  
C 4  37074453.683   193056374.084        -514.101          43.000  
G 5  24442497.215   128446191.0952      -4076.903          31.000  
J 1  37221157.823   195598512.677          87.406          44.000  
J 2  36958302.899   194217182.096       -1162.402          46.000  
C 7  38261271.173   199236446.992         766.394          39.000  
G25  24952039.089   131123685.122        3277.324          27.000  
G21  22812464.114   119880295.150       -1999.928          45.000  
> 2017 10 10 10 23 58.5980000  0 17                     
G24  19616819.150   103087082.308        -482.069          50.000  
G15  20501280.068   107734952.472       -1630.955          49.000  
G20  20557624.840   108031044.346       -2975.434          47.000  
G18  20984956.583   110276687.963        1491.266          47.000  
G13  22537766.285   118436766.167       -2776.517          35.000  
C 3  37429988.851   194907754.371        -508.944          41.000  
G12  22343473.658   117415738.920        2944.630          47.000  
G10  22990910.511   120818061.702        2747.825          43.000  
C 6  35997331.149   187447488.748         -18.855          42.000  
C 1  36818605.020   191724093.674        -488.908          43.000  
C 4  37074473.427   193056476.977        -514.595          43.000  
G 5  24442653.657   128447006.5712      -4077.940          31.000  
J 1  37221154.473   195598495.196          87.356          44.000  
J 2  36958347.144   194217414.584       -1162.601          46.000  
C 7  38261241.770   199236293.833         765.845          39.000  
G25  24951915.218   131123029.723        3276.869          27.000  
G21  22812540.266   119880695.173       -2000.290          45.000  
> 2017 10 10 10 23 58.7980000  0 17                     
G24  19616837.507   103087178.699        -482.003          50.000  
G15  20501342.217   107735278.649       -1630.778          49.000  
G20  20557738.179   108031639.427       -2975.371          47.000  
G18  20984899.835   110276389.710        1491.375          47.000  
G13  22537871.972   118437321.520       -2776.959          35.000  
C 3  37430008.334   194907856.176        -508.980          41.000  
G12  22343361.454   117415149.994        2944.754          47.000  
G10  22990806.020   120817512.130        2747.857          43.000  
C 6  35997331.864   187447492.514         -18.982          42.000  
C 1  36818623.779   191724191.406        -488.780          43.000  
C 4  37074493.277   193056579.865        -514.434          43.000  
G 5  24442809.941   128447822.0102      -4077.746          31.000  
J 1  37221151.148   195598477.736          87.320          44.000  
J 2  36958391.406   194217647.085       -1162.405          46.000  
C 7  38261212.357   199236140.649         765.918          39.000  
G25  24951790.903   131122374.326        3277.038          27.000  
G21  22812616.184   119881095.214       -2000.276          45.000  
> 2017 10 10 10 23 58.9980000  0 17                     
G24  19616855.882   103087275.126        -482.130          50.000  
G15  20501404.409   107735604.856       -1631.036          49.000  
G20  20557851.536   108032234.550       -2975.701          47.000  
G18  20984843.078   110276091.477        1491.089          47.000  
G13  22537977.677   118437876.883       -2776.939          35.000  
C 3  37430027.992   194907957.991        -509.117          41.000  
G12  22343249.379   117414561.090        2944.479          47.000  
G10  22990701.327   120816962.565        2747.827          43.000  
C 6  35997332.632   187447496.284         -18.910          42.000  
C 1  36818642.626   191724289.155        -488.796          43.000  
C 4  37074513.074   193056682.770        -514.355          43.000  
G 5  24442965.152   128448637.4812      -4077.979          31.000  
J 1  37221147.719   195598460.283          87.204          44.000  
J 2  36958435.756   194217879.607       -1162.566          46.000  
C 7  38261183.119   199235987.497         765.881          39.000  
G25  24951665.453   131121718.906        3276.982          27.000  
G21  22812692.258   119881495.281       -2000.325          45.000  
> 2017 10 10 10 23 59.1980000  0 17                     
G24  19616874.205   103087371.564        -481.935          50.000  
G15  20501466.436   107735931.056       -1630.752          49.000  
G20  20557964.736   108032829.670       -2975.496          47.000  
G18  20984786.181   110275793.269        1491.188          47.000  
G13  22538083.312   118438432.235       -2776.683          35.000  
C 3  37430047.475   194908059.791        -508.921          41.000  
G12  22343137.367   117413972.185        2944.757          47.000  
G10  22990596.791   120816413.009        2747.932          43.000  
C 6  35997333.382   187447500.051         -18.636          42.000  
C 1  36818661.228   191724386.908        -488.668          43.000  
C 4  37074532.872   193056785.680        -514.407          43.000  
G 5  24443119.996   128449452.9152      -4076.860          31.000  
J 1  37221144.430   195598442.822          87.542          44.000  
J 2  36958479.957   194218112.118       -1162.430          46.000  
C 7  38261153.742   199235834.357         765.796          39.000  
G25  24951541.199   131121063.478        3277.292          27.000  
G21  22812768.315   119881895.363       -2000.323          44.000  
> 2017 10 10 10 23 59.3980000  0 17                     
G24  19616892.632   103087468.057        -482.415          50.000  
G15  20501528.655   107736257.313       -1631.317          49.000  
G20  20558078.066   108033424.850       -2975.950          47.000  
G18  20984729.547   110275495.100        1490.618          47.000  
G13  22538189.060   118438987.616       -2777.104          35.000  
C 3  37430066.985   194908161.633        -509.408          41.000  
G12  22343025.319   117413383.324        2944.260          47.000  
G10  22990492.151   120815863.497        2747.528          43.000  
C 6  35997334.011   187447503.845         -18.899          42.000  
C 1  36818680.039   191724484.674        -488.992          43.000  
C 4  37074552.512   193056888.606        -514.668          43.000  
G 5  24443275.827   128450268.4242      -4077.322          32.000  
J 1  37221141.254   195598425.397          87.195          44.000  
J 2  36958524.246   194218344.666       -1162.739          46.000  
C 7  38261124.303   199235681.221         765.680          39.000  
G25  24951416.561   131120408.135        3276.606          27.000  
G21  22812844.398   119882295.485       -2000.629          44.000  
> 2017 10 10 10 23 59.5980000  0 17                     
G24  19616911.034   103087564.575        -482.755          50.000  
G15  20501590.699   107736583.574       -1631.534          49.000  
G20  20558191.300   108034020.054       -2976.356          47.000  
G18  20984672.746   110275196.941        1490.398          47.000  
G13  22538294.800   118439543.023       -2777.183          35.000  
C 3  37430086.564   194908263.468        -509.237          41.000  
G12  22342913.253   117412794.477        2943.972          47.000  
G10  22990387.581   120815313.983        2747.417          43.000  
C 6  35997334.717   187447507.656         -19.258          42.000  
C 1  36818698.763   191724582.440        -488.941          43.000  
C 4  37074572.344   193056991.547        -515.104          43.000  
G 5  24443426.745   128451083.9222      -4077.856          32.000  
J 1  37221137.869   195598407.985          86.889          44.000  
J 2  36958568.508   194218577.218       -1162.999          46.000  
C 7  38261094.891   199235528.107         765.485          39.000  
G25  24951291.609   131119752.753        3276.875          27.000  
G21  22812920.611   119882695.633       -2001.140          44.000  
> 2017 10 10 10 23 59.7980000  0 17                     
G24  19616929.426   103087661.118        -482.816          50.000  
G15  20501652.865   107736909.851       -1631.401          49.000  
G20  20558304.596   108034615.271       -2976.091          47.000  
G18  20984615.981   110274898.814        1490.543          47.000  
G13  22538400.452   118440098.432       -2777.182          35.000  
C 3  37430106.143   194908365.333        -509.474          41.000  
G12  22342801.171   117412205.639        2944.099          47.000  
G10  22990283.019   120814764.489        2747.504          43.000  
C 6  35997335.537   187447511.447         -18.957          42.000  
C 1  36818717.409   191724680.231        -488.787          43.000  
C 4  37074592.150   193057094.475        -514.656          43.000  
G 5  24443580.822   128451899.4382      -4077.200          32.000  
J 1  37221134.448   195598390.576          86.959          44.000  
J 2  36958612.814   194218809.779       -1162.780          46.000  
C 7  38261065.557   199235374.993         765.674          39.000  
G25  24951168.384   131119097.359        3277.181          27.000  
G21  22812996.642   119883095.795       -2000.904          45.000  
> 2017 10 10 10 23 59.9980000  0 17                     
G24  19616947.627   103087757.680        -482.733          50.000  
G15  20501715.093   107737236.149       -1631.447          49.000  
G20  20558417.857   108035210.524       -2976.271          47.000  
G18  20984559.154   110274600.698        1490.546          47.000  
G13  22538506.104   118440653.837       -2776.766          35.000  
C 3  37430125.696   194908467.183        -509.279          41.000  
G12  22342689.105   117411616.810        2944.208          47.000  
G10  22990178.431   120814215.016        2747.369          43.000  
C 6  35997336.235   187447515.264         -18.851          42.000  
C 1  36818736.185   191724778.016        -488.917          43.000  
C 4  37074611.816   193057197.428        -514.796          43.000  
G 5  24443736.809   128452714.9722      -4077.627          32.000  
J 1  37221130.976   195598373.167          87.129          44.000  
J 2  36958657.164   194219042.351       -1162.799          46.000  
C 7  38261036.101   199235221.898         765.741          39.000  
G25  24951043.816   131118442.022        3276.445          27.000  
G21  22813072.760   119883495.979       -2001.027          44.000  
> 2017 10 10 10 24  0.1980000  0 17                     
G24  19616966.098   103087854.234        -482.621          50.000  
G15  20501777.294   107737562.423       -1631.329          49.000  
G20  20558530.969   108035805.754       -2976.052          47.000  
G18  20984502.415   110274302.575        1490.677          47.000  
G13  22538611.879   118441209.234       -2776.644          35.000  
C 3  37430145.223   194908569.011        -509.092          41.000  
G12  22342576.927   117411027.968        2944.306          47.000  
G10  22990073.800   120813665.501        2747.545          43.000  
C 6  35997337.073   187447519.037         -18.462          42.000  
C 1  36818755.040   191724875.768        -488.614          43.000  
C 4  37074631.483   193057300.332        -514.466          43.000  
G 5  24443892.282   128453530.4742      -4077.181          32.000  
J 1  37221127.713   195598355.727          87.387          44.000  
J 2  36958701.400   194219274.888       -1162.603          46.000  
C 7  38261006.567   199235068.783         765.631          39.000  
G25  24950919.151   131117786.587        3277.332          27.000  
G21  22813148.860   119883896.143       -2000.694          44.000  
> 2017 10 10 10 24  0.3980000  0 17                     
G24  19616984.377   103087950.844        -483.064          50.000  
G15  20501839.496   107737888.730       -1631.701          49.000  
G20  20558644.326   108036401.040       -2976.477          47.000  
G18  20984445.736   110274004.489        1490.380          47.000  
G13  22538717.749   118441764.666       -2776.874          36.000  
C 3  37430164.680   194908670.848        -509.191          41.000  
G12  22342464.809   117410439.153        2944.055          47.000  
G10  22989969.151   120813116.030        2747.462          43.000  
C 6  35997337.658   187447522.862         -19.109          42.000  
C 1  36818773.755   191724973.547        -488.779          43.000  
C 4  37074651.263   193057403.272        -514.755          43.000  
G 5  24444047.344   128454346.0472      -4078.445          32.000  
J 1  37221124.362   195598338.328          87.105          44.000  
J 2  36958745.663   194219507.453       -1162.877          46.000  
C 7  38260977.285   199234915.685         765.338          39.000  
G25  24950795.150   131117131.159        3277.032          27.000  
G21  22813224.969   119884296.347       -2000.952          44.000  
> 2017 10 10 10 24  0.5980000  0 17                     
G24  19617002.656   103088047.446        -483.071          50.000  
G15  20501901.592   107738215.027       -1631.548          49.000  
G20  20558757.473   108036996.315       -2976.488          47.000  
G18  20984388.971   110273706.397        1490.562          47.000  
G13  22538823.454   118442320.071       -2777.082          36.000  
C 3  37430184.241   194908772.672        -509.083          41.000  
G12  22342352.901   117409850.328        2944.046          47.000  
G10  22989864.624   120812566.551        2747.325          43.000  
C 6  35997338.408   187447526.644         -19.029          42.000  
C 1  36818792.462   191725071.320        -488.756          43.000  
C 4  37074671.104   193057506.180        -514.397          43.000  
G 5  24444202.128   128455161.5142      -4077.420          32.000  
J 1  37221121.038   195598320.906          86.983          44.000  
J 2  36958789.960   194219740.000       -1162.727          46.000  
C 7  38260947.969   199234762.546         765.723          39.000  
G25  24950670.808   131116475.740        3277.278          27.000  
G21  22813301.122   119884696.557       -2001.124          44.000  
> 2017 10 10 10 24  0.7980000  0 17                     
G24  19617020.918   103088144.047        -482.966          50.000  
G15  20501963.671   107738541.320       -1631.338          49.000  
G20  20558870.777   108037591.592       -2976.186          47.000  
G18  20984332.266   110273408.310        1490.646          47.000  
G13  22538929.281   118442875.470       -2776.790          36.000  
C 3  37430203.812   194908874.471        -508.601          41.000  
G12  22342240.783   117409261.494        2944.385          47.000  
G10  22989760.010   120812017.053        2747.626          43.000  
C 6  35997339.062   187447530.409         -18.500          42.000  
C 1  36818811.151   191725169.060        -488.608          43.000  
C 4  37074690.857   193057609.079        -514.301          43.000  
G 5  24444357.225   128455977.005       -4077.214          32.000  
J 1  37221117.862   195598303.463          87.349          44.000  
J 2  36958834.205   194219972.537       -1162.507          46.000  
C 7  38260918.635   199234609.413         766.113          39.000  
G25  24950545.952   131115820.303        3277.250          27.000  
G21  22813377.249   119885096.751       -2000.867          44.000  
> 2017 10 10 10 24  0.9980000  0 17                     
G24  19617039.249   103088240.644        -482.896          50.000  
G15  20502025.820   107738867.592       -1631.304          49.000  
G20  20558984.081   108038186.865       -2976.355          47.000  
G18  20984275.588   110273110.194        1490.657          47.000  
G13  22539034.951   118443430.830       -2776.794          36.000  
C 3  37430223.347   194908976.272        -509.101          41.000  
G12  22342128.569   117408672.639        2944.349          47.000  
G10  22989655.483   120811467.531        2747.706          43.000  
C 6  35997339.725   187447534.154         -18.863          42.000  
C 1  36818830.032   191725266.768        -488.460          43.000  
C 4  37074710.620   193057711.963        -514.335          43.000  
G 5  24444511.075   128456792.475       -4077.303          32.000  
J 1  37221114.355   195598285.996          87.379          44.000  
J 2  36958878.433   194220205.039       -1162.526          46.000  
C 7  38260889.144   199234456.264         766.010          39.000  
G25  24950421.672   131115164.822        3277.503          27.000  
G21  22813453.471   119885496.930       -2000.762          44.000  
> 2017 10 10 10 24  1.1980000  0 17                     
G24  19617057.738   103088337.229        -482.861          50.000  
G15  20502087.926   107739193.831       -1631.024          49.000  
G20  20559097.429   108038782.117       -2976.262          47.000  
G18  20984218.883   110272812.072        1490.818          47.000  
G13  22539140.629   118443986.173       -2776.647          36.000  
C 3  37430242.935   194909078.011        -508.492          41.000  
G12  22342016.530   117408083.751        2944.553          47.000  
G10  22989551.009   120810917.998        2747.878          43.000  
C 6  35997340.319   187447537.839         -18.157          42.000  
C 1  36818848.887   191725364.449        -488.075          43.000  
C 4  37074730.338   193057814.791        -513.938          43.000  
G 5  24444666.103   128457607.907       -4076.801          32.000  
J 1  37221110.978   195598268.488          87.751          44.000  
J 2  36958922.756   194220437.512       -1162.210          46.000  
C 7  38260859.732   199234303.074         766.089          39.000  
G25  24950296.964   131114509.295        3277.917          27.000  
G21  22813529.703   119885897.091       -2000.622          44.000  
> 2017 10 10 10 24  1.3980000  0 17                     
G24  19617076.008   103088433.825        -483.053          50.000  
G15  20502149.987   107739520.089       -1631.277          49.000  
G20  20559210.655   108039377.380       -2976.494          47.000  
G18  20984162.100   110272513.966        1490.361          47.000  
G13  22539246.360   118444541.507       -2776.622          36.000  
C 3  37430262.540   194909179.769        -508.955          41.000  
G12  22341904.474   117407494.872        2944.332          47.000  
G10  22989446.438   120810368.464        2747.458          43.000  
C 6  35997340.842   187447541.547         -18.499          42.000  
C 1  36818867.568   191725462.140        -488.529          43.000  
C 4  37074750.031   193057917.633        -514.219          43.000  
G 5  24444820.764   128458423.339       -4076.780          32.000  
J 1  37221107.645   195598250.982          87.592          44.000  
J 2  36958966.932   194220669.987       -1162.379          46.000  
C 7  38260830.232   199234149.898         765.497          39.000  
G25  24950172.971   131113853.800        3277.442          27.000  
G21  22813605.855   119886297.270       -2000.842          44.000  
> 2017 10 10 10 24  1.5980000  0 17                     
G24  19617094.392   103088530.423        -482.878          50.000  
G15  20502211.979   107739846.327       -1631.107          49.000  
G20  20559323.855   108039972.636       -2976.261          47.000  
G18  20984105.396   110272215.841        1490.504          47.000  
G13  22539352.073   118445096.825       -2776.570          36.000  
C 3  37430282.050   194909281.471        -508.382          41.000  
G12  22341792.408   117406905.982        2944.425          47.000  
G10  22989341.903   120809818.898        2747.963          43.000  
C 6  35997341.497   187447545.217         -18.139          42.000  
C 1  36818886.370   191725559.782        -488.101          43.000  
C 4  37074769.671   193058020.434        -513.931          43.000  
G 5  24444976.621   128459238.778       -4077.207          32.000  
J 1  37221104.329   195598233.456          87.738          44.000  
J 2  36959011.194   194220902.434       -1162.144          46.000  
C 7  38260800.933   199233996.666         766.345          39.000  
G25  24950048.647   131113198.241        3277.799          27.000  
G21  22813681.991   119886697.434       -2000.713          44.000  
> 2017 10 10 10 24  1.7980000  0 17                     
G24  19617112.671   103088627.039        -482.757          50.000  
G15  20502274.111   107740172.580       -1630.968          49.000  
G20  20559437.141   108040567.918       -2976.094          47.000  
G18  20984048.735   110271917.730        1490.848          47.000  
G13  22539457.813   118445652.148       -2776.132          36.000  
C 3  37430301.672   194909383.199        -508.391          41.000  
G12  22341680.369   117406317.092        2944.798          47.000  
G10  22989237.332   120809269.350        2748.062          43.000  
C 6  35997342.134   187447548.888         -17.944          42.000  
C 1  36818905.225   191725657.431        -488.009          43.000  
C 4  37074789.477   193058123.249        -513.760          43.000  
G 5  24445131.910   128460054.207       -4076.848          32.000  
J 1  37221101.031   195598215.923          88.151          44.000  
J 2  36959055.500   194221134.883       -1161.873          46.000  
C 7  38260771.530   199233843.464         766.467          39.000  
G25  24949924.236   131112542.661        3277.879          27.000  
G21  22813758.152   119887097.612       -2000.608          44.000  
> 2017 10 10 10 24  1.9980000  0 17                     
G24  19617130.933   103088723.652        -483.351          50.000  
G15  20502336.155   107740498.812       -1631.333          49.000  
G20  20559550.437   108041163.189       -2976.638          47.000  
G18  20983991.856   110271619.612        1490.353          47.000  
G13  22539563.526   118446207.448       -2776.671          36.000  
C 3  37430321.112   194909484.880        -508.418          41.000  
G12  22341568.321   117405728.184        2944.320          47.000  
G10  22989132.875   120808719.785        2747.506          43.000  
C 6  35997342.701   187447552.530         -18.195          42.000  
C 1  36818923.984   191725755.051        -488.140          43.000  
C 4  37074809.135   193058226.023        -514.249          43.000  
G 5  24445288.037   128460869.611       -4077.549          32.000  
J 1  37221097.681   195598198.377          87.547          44.000  
J 2  36959099.614   194221367.302       -1162.253          46.000  
C 7  38260742.161   199233690.240         766.034          39.000  
G25  24949798.900   131111887.045        3278.144          28.000  
G21  22813834.314   119887497.778       -2001.047          44.000  
> 2017 10 10 10 24  2.1980000  0 17                     
G24  19617149.377   103088820.301        -483.227          50.000  
G15  20502398.295   107740825.075       -1631.237          49.000  
G20  20559663.636   108041758.493       -2976.533          47.000  
G18  20983935.082   110271321.521        1490.485          47.000  
G13  22539669.283   118446762.777       -2776.617          36.000  
C 3  37430340.604   194909586.582        -508.387          41.000  
G12  22341456.221   117405139.303        2944.470          47.000  
G10  22989028.252   120808170.233        2747.846          43.000  
C 6  35997343.381   187447556.189         -17.943          42.000  
C 1  36818942.831   191725852.695        -488.193          43.000  
C 4  37074828.836   193058328.821        -513.847          43.000  
G 5  24445443.920   128461685.028       -4077.352          32.000  
J 1  37221094.261   195598180.841          87.713          44.000  
J 2  36959143.938   194221599.745       -1162.068          46.000  
C 7  38260712.880   199233537.029         766.309          39.000  
G25  24949673.712   131111231.488        3277.751          27.000  
G21  22813910.423   119887897.972       -2000.891          44.000  
> 2017 10 10 10 24  2.3980000  0 17                     
G24  19617167.744   103088916.980        -483.505          50.000  
G15  20502460.392   107741151.353       -1631.553          49.000  
G20  20559776.880   108042353.821       -2976.764          47.000  
G18  20983878.395   110271023.459        1490.254          47.000  
G13  22539775.067   118447318.106       -2776.693          36.000  
C 3  37430360.279   194909688.286        -508.669          41.000  
G12  22341344.112   117404550.439        2944.188          47.000  
G10  22988923.752   120807620.705        2747.514          43.000  
C 6  35997343.975   187447559.872         -18.448          42.000  
C 1  36818961.555   191725950.346        -488.484          43.000  
C 4  37074848.598   193058431.636        -514.248          43.000  
G 5  24445599.201   128462500.443       -4077.662          32.000  
J 1  37221090.928   195598163.314          87.607          44.000  
J 2  36959188.122   194221832.202       -1162.354          46.000  
C 7  38260683.467   199233383.823         766.083          39.000  
G25  24949548.506   131110575.919        3277.737          27.000  
G21  22813986.575   119888298.193       -2000.994          44.000  
> 2017 10 10 10 24  2.5980000  0 17                     
G24  19617186.145   103089013.709        -483.694          50.000  
G15  20502522.602   107741477.673       -1631.521          49.000  
G20  20559890.193   108042949.205       -2976.866          47.000  
G18  20983821.716   110270725.430        1490.140          47.000  
G13  22539880.754   118447873.481       -2776.963          36.000  
C 3  37430379.788   194909790.035        -508.579          41.000  
G12  22341232.003   117403961.606        2944.163          47.000  
G10  22988819.225   120807071.223        2747.313          43.000  
C 6  35997344.655   187447563.566         -18.537          42.000  
C 1  36818980.261   191726048.015        -488.345          43.000  
C 4  37074868.404   193058534.463        -514.302          43.000  
G 5  24445754.325   128463315.900       -4077.193          32.000  
J 1  37221087.726   195598145.822          87.589          44.000  
J 2  36959232.315   194222064.688       -1162.340          46.000  
C 7  38260654.090   199233230.662         765.796          39.000  
G25  24949422.437   131109920.367        3277.388          28.000  
G21  22814062.728   119888698.468       -2001.361          44.000  
> 2017 10 10 10 24  2.7980000  0 17                     
G24  19617204.590   103089110.481        -483.875          50.000  
G15  20502584.786   107741804.025       -1631.701          49.000  
G20  20560003.488   108043544.627       -2977.117          47.000  
G18  20983764.925   110270427.451        1490.123          47.000  
G13  22539986.476   118448428.882       -2777.084          36.000  
C 3  37430399.324   194909891.789        -508.615          41.000  
G12  22341119.973   117403372.808        2944.089          47.000  
G10  22988714.681   120806521.749        2747.418          43.000  
C 6  35997345.318   187447567.281         -18.544          42.000  
C 1  36818999.064   191726145.706        -488.447          43.000  
C 4  37074888.210   193058637.326        -513.990          43.000  
G 5  24445909.187   128464131.401       -4077.655          33.000  
J 1  37221084.427   195598128.353          87.379          44.000  
J 2  36959276.533   194222297.195       -1162.473          46.000  
C 7  38260624.721   199233077.528         765.912          39.000  
G25  24949297.502   131109264.817        3277.660          28.000  
G21  22814138.968   119889098.765       -2001.520          44.000  
> 2017 10 10 10 24  2.9980000  0 17                     
G24  19617223.096   103089207.286        -483.996          50.000  
G15  20502646.961   107742130.395       -1631.833          49.000  
G20  20560116.784   108044140.077       -2977.275          47.000  
G18  20983708.299   110270129.508        1489.686          47.000  
G13  22540092.268   118448984.281       -2777.090          36.000  
C 3  37430418.842   194909993.564        -508.631          41.000  
G12  22341007.934   117402784.031        2943.928          47.000  
G10  22988610.049   120805972.311        2747.143          43.000  
C 6  35997345.973   187447571.004         -18.680          42.000  
C 1  36819017.779   191726243.422        -488.528          43.000  
C 4  37074907.929   193058740.216        -514.722          43.000  
G 5  24446065.366   128464946.898       -4077.486          33.000  
J 1  37221081.155   195598110.895          87.274          44.000  
J 2  36959320.918   194222529.717       -1162.554          46.000  
C 7  38260595.143   199232924.394         765.869          39.000  
G25  24949172.297   131108609.240        3277.887          28.000  
G21  22814215.182   119889499.090       -2001.625          45.000  
> 2017 10 10 10 24  3.1980000  0 17                     
G24  19617241.454   103089304.122        -484.243          50.000  
G15  20502708.996   107742456.804       -1632.093          49.000  
G20  20560230.140   108044735.566       -2977.531          47.000  
G18  20983651.577   110269831.589        1489.539          47.000  
G13  22540198.008   118449539.715       -2777.023          36.000  
C 3  37430438.447   194910095.370        -509.000          41.000  
G12  22340895.816   117402195.280        2943.787          47.000  
G10  22988505.531   120805422.897        2746.866          43.000  
C 6  35997346.653   187447574.752         -18.578          42.000  
C 1  36819036.538   191726341.139        -488.915          43.000  
C 4  37074927.587   193058843.090        -514.482          43.000  
G 5  24446220.438   128465762.429       -4077.802          33.000  
J 1  37221077.857   195598093.458          87.118          44.000  
J 2  36959365.093   194222762.258       -1162.716          46.000  
C 7  38260565.739   199232771.305         765.125          39.000  
G25  24949047.746   131107953.741        3277.479          28.000  
G21  22814291.413   119889899.450       -2001.820          45.000  
> 2017 10 10 10 24  3.3980000  0 18                     
G24  19617259.898   103089400.972        -484.348          50.000  
G15  20502771.128   107742783.197       -1632.124          49.000  
G20  20560343.392   108045331.057       -2977.586          47.000  
G18  20983594.916   110269533.667        1489.543          47.000  
G13  22540303.704   118450095.139       -2777.298          36.000  
C 3  37430457.826   194910197.144        -508.928          41.000  
G12  22340783.725   117401606.522        2943.670          47.000  
G10  22988401.031   120804873.469        2747.031          43.000  
C 6  35997347.238   187447578.486         -18.728          42.000  
C 1  36819055.297   191726438.857        -488.558          43.000  
C 4  37074947.463   193058945.962        -514.479          43.000  
G 5  24446375.073   128466577.927       -4077.830          33.000  
J 1  37221074.498   195598076.007          87.090          44.000  
J 2  36959409.356   194222994.790       -1162.695          46.000  
C 9  37667020.132   196142025.976         105.813          42.000  
C 7  38260536.440   199232618.180         765.356          39.000  
G25  24948922.585   131107298.201        3277.880          28.000  
G21  22814367.636   119890299.814       -2001.893          45.000  
> 2017 10 10 10 24  3.5980000  0 18                     
G24  19617278.317   103089497.862        -484.542          50.000  
G15  20502833.303   107743109.631       -1632.087          49.000  
G20  20560456.653   108045926.592       -2977.661          47.000  
G18  20983538.238   110269235.788        1489.465          47.000  
G13  22540409.495   118450650.602       -2777.496          36.000  
C 3  37430477.414   194910298.957        -508.914          41.000  
G12  22340671.598   117401017.793        2943.727          47.000  
G10  22988296.486   120804324.084        2746.923          43.000  
C 6  35997348.014   187447582.239         -18.734          42.000  
C 1  36819074.117   191726536.604        -488.650          43.000  
C 4  37074967.251   193059048.847        -514.401          43.000  
G 5  24446530.414   128467393.471       -4077.293          33.000  
J 1  37221071.165   195598058.585          87.050          44.000  
J 2  36959453.636   194223227.348       -1162.757          46.000  
C 9  37667016.040   196142004.883         105.555          42.000  
C 7  38260507.019   199232465.092         765.222          39.000  
G25  24948798.191   131106642.672        3277.750          28.000  
G21  22814443.762   119890700.208       -2001.966          45.000  
> 2017 10 10 10 24  3.7980000  0 18                     
G24  19617296.788   103089594.773        -484.652          50.000  
G15  20502895.356   107743436.071       -1632.215          49.000  
G20  20560569.957   108046522.140       -2977.817          47.000  
G18  20983481.559   110268937.926        1489.277          47.000  
G13  22540515.279   118451206.050       -2777.434          36.000  
C 3  37430496.949   194910400.764        -509.056          41.000  
G12  22340559.585   117400429.077        2943.589          47.000  
G10  22988191.933   120803774.706        2746.856          43.000  
C 6  35997348.730   187447585.994         -18.769          42.000  
C 1  36819092.929   191726634.335        -488.894          43.000  
C 4  37074986.970   193059151.728        -513.954          43.000  
G 5  24446685.468   128468209.020       -4077.406          33.000  
J 1  37221067.972   195598041.155          87.088          44.000  
J 2  36959497.863   194223459.903       -1162.745          46.000  
C 9  37667011.983   196141983.763         105.601          42.000  
C 7  38260477.590   199232312.006         765.479          39.000  
G25  24948673.535   131105987.135        3277.540          28.000  
G21  22814520.020   119891100.625       -2002.045          45.000  
> 2017 10 10 10 24  3.9980000  0 18                     
G24  19617315.259   103089691.700        -484.763          50.000  
G15  20502957.435   107743762.524       -1632.301          49.000  
G20  20560683.279   108047117.711       -2977.925          47.000  
G18  20983424.899   110268640.070        1489.274          47.000  
G13  22540621.088   118451761.503       -2777.188          36.000  
C 3  37430516.432   194910502.557        -509.011          41.000  
G12  22340447.573   117399840.366        2943.629          47.000  
G10  22988087.450   120803225.319        2746.868          43.000  
C 6  35997349.567   187447589.739         -18.813          42.000  
C 1  36819111.688   191726732.050        -488.413          43.000  
C 4  37075006.793   193059254.646        -514.462          43.000  
G 5  24446840.932   128469024.590       -4077.723          33.000  
J 1  37221064.630   195598023.721          87.271          44.000  
J 2  36959541.986   194223692.466       -1162.871          46.000  
C 9  37667007.934   196141962.646         105.789          42.000  
C 7  38260448.177   199232158.936         765.302          39.000  
G25  24948549.560   131105331.632        3277.717          28.000  
G21  22814596.120   119891501.053       -2002.198          45.000  
> 2017 10 10 10 24  4.1980000  0 18                     
G24  19617333.660   103089788.648        -484.787          50.000  
G15  20503019.601   107744088.982       -1632.279          49.000  
G20  20560796.592   108047713.295       -2977.934          47.000  
G18  20983368.229   110268342.236        1489.202          47.000  
G13  22540726.793   118452316.975       -2777.533          36.000  
C 3  37430535.942   194910604.343        -508.689          41.000  
G12  22340335.560   117399251.667        2943.460          47.000  
G10  22987982.862   120802675.943        2746.967          43.000  
C 6  35997350.283   187447593.481         -18.417          42.000  
C 1  36819130.586   191726829.798        -488.752          43.000  
C 4  37075026.434   193059357.540        -514.604          43.000  
G 5  24446995.951   128469840.149       -4078.503          33.000  
J 1  37221061.350   195598006.302          87.278          44.000  
J 2  36959586.371   194223925.021       -1162.836          46.000  
C 9  37667003.807   196141941.524         105.697          42.000  
C 7  38260418.809   199232005.851         765.460          39.000  
G25  24948425.751   131104676.053        3278.002          28.000  
G21  22814672.247   119891901.494       -2002.309          45.000  
> 2017 10 10 10 24  4.3980000  0 18                     
G24  19617352.036   103089885.660        -485.040          50.000  
G15  20503081.803   107744415.493       -1632.511          49.000  
G20  20560910.010   108048308.942       -2978.311          47.000  
G18  20983311.647   110268044.460        1488.765          47.000  
G13  22540832.611   118452872.477       -2777.554          36.000  
C 3  37430555.652   194910706.193        -509.148          41.000  
G12  22340223.529   117398663.006        2943.347          47.000  
G10  22987878.431   120802126.631        2746.538          43.000  
C 6  35997351.051   187447597.277         -18.759          42.000  
C 1  36819149.336   191726927.569        -488.868          43.000  
C 4  37075046.222   193059460.466        -514.705          43.000  
G 5  24447151.075   128470655.733       -4078.098          33.000  
J 1  37221058.017   195597988.925          86.856          44.000  
J 2  36959630.607   194224157.623       -1163.014          46.000  
C 9  37666999.776   196141920.447         105.375          42.000  
C 7  38260389.387   199231852.824         765.094          39.000  
G25  24948301.924   131104020.559        3277.517          28.000  
G21  22814748.496   119892301.989       -2002.510          45.000  
> 2017 10 10 10 24  4.5980000  0 18                     
G24  19617370.489   103089982.707        -485.273          50.000  
G15  20503143.960   107744742.031       -1632.743          49.000  
G20  20561023.322   108048904.623       -2978.406          47.000  
G18  20983255.073   110267746.701        1488.827          47.000  
G13  22540938.342   118453428.006       -2777.744          36.000  
C 3  37430575.213   194910808.052        -509.289          41.000  
G12  22340111.455   117398074.377        2943.114          47.000  
G10  22987773.896   120801577.321        2746.428          43.000  
C 6  35997351.775   187447601.088         -19.178          42.000  
C 1  36819168.130   191727025.357        -489.020          43.000  
C 4  37075066.019   193059563.432        -514.888          43.000  
G 5  24447306.434   128471471.355       -4078.887          33.000  
J 1  37221054.640   195597971.557          86.797          44.000  
J 2  36959674.931   194224390.245       -1163.245          46.000  
C 9  37666995.745   196141899.378         105.396          42.000  
C 7  38260359.993   199231699.793         764.935          39.000  
G25  24948176.684   131103365.060        3277.500          28.000  
G21  22814824.718   119892702.513       -2002.581          45.000  
> 2017 10 10 10 24  4.7980000  0 18                     
G24  19617389.056   103090079.759        -485.337          50.000  
G15  20503206.031   107745068.556       -1632.570          49.000  
G20  20561136.566   108049500.298       -2978.379          47.000  
G18  20983198.430   110267448.953        1488.756          47.000  
G13  22541044.238   118453983.519       -2777.554          36.000  
C 3  37430594.775   194910909.890        -509.288          41.000  
G12  22339999.460   117397485.734        2943.151          47.000  
G10  22987669.325   120801028.021        2746.440          43.000  
C 6  35997352.534   187447604.862         -18.828          42.000  
C 1  36819186.837   191727123.120        -488.756          43.000  
C 4  37075085.782   193059666.355        -514.620          43.000  
G 5  24447461.637   128472286.926       -4077.791          33.000  
J 1  37221051.281   195597954.168          87.023          44.000  
J 2  36959719.237   194224622.837       -1162.917          46.000  
C 9  37666991.697   196141878.291         105.597          42.000  
C 7  38260330.624   199231546.757         765.344          39.000  
G25  24948052.002   131102709.557        3277.631          28.000  
G21  22814900.818   119893103.038       -2002.626          45.000  
> 2017 10 10 10 24  4.9980000  0 18                     
G24  19617407.457   103090176.842        -485.257          50.000  
G15  20503268.101   107745395.108       -1632.597          49.000  
G20  20561249.791   108050096.008       -2978.277          47.000  
G18  20983141.708   110267151.227        1488.755          47.000  
G13  22541149.917   118454539.053       -2777.535          36.000  
C 3  37430614.258   194911011.735        -508.780          41.000  
G12  22339887.499   117396897.112        2943.304          47.000  
G10  22987564.799   120800478.725        2746.700          43.000  
C 6  35997353.241   187447608.662         -18.796          42.000  
C 1  36819205.640   191727220.903        -488.728          43.000  
C 4  37075105.518   193059769.300        -514.543          43.000  
G 5  24447616.795   128473102.533       -4077.706          33.000  
J 1  37221047.965   195597936.796          87.242          44.000  
J 2  36959763.429   194224855.454       -1162.769          46.000  
C 9  37666987.718   196141857.219         105.552          42.000  
C 7  38260301.334   199231393.741         765.125          39.000  
G25  24947927.468   131102054.055        3277.667          28.000  
G21  22814977.067   119893503.588       -2002.748          45.000  
> 2017 10 10 10 24  5.1980000  0 18                     
G24  19617425.894   103090273.927        -485.625          50.000  
G15  20503330.259   107745721.651       -1632.944          49.000  
G20  20561363.131   108050691.726       -2978.931          47.000  
G18  20983085.056   110266853.493        1488.473          47.000  
G13  22541255.622   118455094.562       -2777.818          36.000  
C 3  37430633.846   194911113.560        -509.240          41.000  
G12  22339775.460   117396308.478        2942.924          47.000  
G10  22987460.368   120799929.424        2746.312          43.000  
C 6  35997353.886   187447612.449         -19.207          42.000  
C 1  36819224.451   191727318.679        -489.053          43.000  
C 4  37075125.307   193059872.229        -515.054          43.000  
G 5  24447771.901   128473918.151       -4078.438          33.000  
J 1  37221044.754   195597919.421          86.674          44.000  
J 2  36959807.596   194225088.060       -1163.229          46.000  
C 9  37666983.626   196141836.115         105.418          42.000  
C 7  38260271.991   199231240.711         764.917          39.000  
G25  24947803.109   131101398.492        3277.694          28.000  
G21  22815053.281   119893904.125       -2002.939          45.000  
> 2017 10 10 10 24  5.3980000  0 18                     
G24  19617444.426   103090371.024        -485.331          50.000  
G15  20503392.425   107746048.191       -1632.607          49.000  
G20  20561476.522   108051287.444       -2978.605          47.000  
G18  20983028.473   110266555.771        1488.823          47.000  
G13  22541361.274   118455650.072       -2777.346          36.000  
C 3  37430653.364   194911215.392        -508.951          41.000  
G12  22339663.499   117395719.842        2943.313          47.000  
G10  22987355.815   120799380.126        2746.558          43.000  
C 6  35997354.497   187447616.203         -18.756          42.000  
C 1  36819243.192   191727416.437        -488.931          43.000  
C 4  37075145.139   193059975.133        -514.746          43.000  
G 5  24447927.130   128474733.727       -4077.707          33.000  
J 1  37221041.491   195597902.024          87.111          44.000  
J 2  36959851.736   194225320.651       -1162.916          46.000  
C 9  37666979.490   196141815.019         105.691          42.000  
C 7  38260242.631   199231087.658         765.387          39.000  
G25  24947678.663   131100742.984        3277.619          28.000  
G21  22815129.425   119894304.665       -2002.464          44.000  
> 2017 10 10 10 24  5.5980000  0 18                     
G24  19617462.923   103090468.180        -486.062          50.000  
G15  20503454.592   107746374.781       -1633.186          49.000  
G20  20561589.887   108051883.207       -2979.027          47.000  
G18  20982971.786   110266258.104        1488.190          47.000  
G13  22541466.996   118456205.634       -2778.220          36.000  
C 3  37430672.891   194911317.244        -509.529          41.000  
G12  22339551.486   117395131.255        2942.696          47.000  
G10  22987251.323   120798830.855        2746.078          43.000  
C 6  35997355.099   187447620.004         -19.255          42.000  
C 1  36819261.978   191727514.214        -489.140          43.000  
C 4  37075164.927   193060078.074        -515.006          43.000  
G 5  24448082.332   128475549.381       -4078.440          33.000  
J 1  37221038.228   195597884.670          86.551          44.000  
J 2  36959896.016   194225553.273       -1163.203          46.000  
C 9  37666975.233   196141793.940         105.275          42.000  
C 7  38260213.332   199230934.662         764.813          39.000  
G25  24947554.130   131100087.393        3278.226          28.000  
G21  22815205.613   119894705.272       -2003.182          44.000  
> 2017 10 10 10 24  5.7980000  0 18                     
G24  19617481.333   103090565.352        -485.890          50.000  
G15  20503516.749   107746701.375       -1632.858          49.000  
G20  20561703.296   108052479.004       -2978.970          47.000  
G18  20982915.099   110265960.442        1488.470          47.000  
G13  22541572.718   118456761.164       -2777.488          36.000  
C 3  37430692.470   194911419.100        -509.228          41.000  
G12  22339439.447   117394542.662        2942.967          47.000  
G10  22987146.718   120798281.600        2746.406          43.000  
C 6  35997355.998   187447623.800         -18.837          42.000  
C 1  36819280.806   191727612.006        -488.809          43.000  
C 4  37075184.847   193060181.012        -514.379          43.000  
G 5  24448237.674   128476365.003       -4078.111          33.000  
J 1  37221034.878   195597867.310          86.874          44.000  
J 2  36959940.270   194225785.908       -1163.083          46.000  
C 9  37666971.106   196141772.871         105.402          42.000  
C 7  38260183.876   199230781.654         765.106          39.000  
G25  24947430.652   131099431.951        3277.295          28.000  
G21  22815281.765   119895105.884       -2003.071          44.000  
> 2017 10 10 10 24  5.9980000  0 18                     
G24  19617499.917   103090662.531        -485.859          50.000  
G15  20503578.872   107747027.972       -1632.885          49.000  
G20  20561816.670   108053074.797       -2978.907          47.000  
G18  20982858.412   110265662.789        1488.523          48.000  
G13  22541678.388   118457316.721       -2777.617          36.000  
C 3  37430712.102   194911520.942        -509.155          41.000  
G12  22339327.522   117393954.080        2943.017          47.000  
G10  22987042.156   120797732.340        2746.386          43.000  
C 6  35997356.687   187447627.604         -19.057          42.000  
C 1  36819299.522   191727709.783        -488.866          43.000  
C 4  37075204.583   193060283.961        -514.616          43.000  
G 5  24448392.885   128477180.639       -4078.193          33.000  
J 1  37221031.553   195597849.941          86.983          44.000  
J 2  36959984.532   194226018.535       -1163.142          46.000  
C 9  37666967.110   196141751.761         105.666          42.000  
C 7  38260154.542   199230628.650         765.253          39.000  
G25  24947305.787   131098776.351        3278.167          28.000  
G21  22815358.084   119895506.508       -2003.082          44.000  
> 2017 10 10 10 24  6.1980000  0 18                     
G24  19617518.502   103090759.767        -486.146          50.000  
G15  20503641.047   107747354.618       -1633.251          49.000  
G20  20561930.053   108053670.649       -2979.277          47.000  
G18  20982801.725   110265365.201        1488.044          48.000  
G13  22541784.067   118457872.307       -2777.925          36.000  
C 3  37430731.689   194911622.819        -509.332          41.000  
G12  22339215.526   117393365.534        2942.792          47.000  
G10  22986937.751   120797183.123        2746.168          43.000  
C 6  35997357.429   187447631.414         -19.360          42.000  
C 1  36819318.333   191727807.591        -489.196          43.000  
C 4  37075224.232   193060386.939        -514.888          43.000  
G 5  24448548.174   128477996.311       -4078.313          33.000  
J 1  37221028.194   195597832.606          86.770          44.000  
J 2  36960028.804   194226251.180       -1163.201          46.000  
C 9  37666963.157   196141730.701         105.621          42.000  
C 7  38260125.217   199230475.661         764.948          39.000  
G25  24947182.196   131098120.834        3277.654          28.000  
G21  22815434.376   119895907.175       -2003.555          44.000  
> 2017 10 10 10 24  6.3980000  0 18                     
G24  19617536.938   103090856.972        -486.076          50.000  
G15  20503703.144   107747681.215       -1633.168          50.000  
G20  20562043.366   108054266.462       -2979.146          47.000  
G18  20982745.230   110265067.571        1487.831          48.000  
G13  22541889.797   118458427.854       -2778.031          36.000  
C 3  37430751.251   194911724.649        -509.259          41.000  
G12  22339103.435   117392776.953        2942.792          47.000  
G10  22986833.242   120796633.876        2745.998          43.000  
C 6  35997358.188   187447635.172         -18.810          42.000  
C 1  36819337.144   191727905.342        -488.842          43.000  
C 4  37075244.012   193060489.864        -514.883          43.000  
G 5  24448703.446   128478811.904       -4077.619          33.000  
J 1  37221024.835   195597815.232          86.773          44.000  
J 2  36960073.005   194226483.792       -1163.176          46.000  
C 9  37666959.082   196141709.602         105.509          42.000  
C 7  38260095.875   199230322.649         765.344          39.000  
G25  24947056.903   131097465.296        3277.714          28.000  
G21  22815510.669   119896307.797       -2003.255          45.000  
> 2017 10 10 10 24  6.5980000  0 18                     
G24  19617555.400   103090954.230        -485.832          50.000  
G15  20503765.345   107748007.855       -1632.866          50.000  
G20  20562156.662   108054862.325       -2978.885          47.000  
G18  20982688.578   110264769.968        1488.344          48.000  
G13  22541995.563   118458983.417       -2777.275          36.000  
C 3  37430770.734   194911826.497        -508.796          41.000  
G12  22338991.395   117392188.397        2943.035          47.000  
G10  22986728.767   120796084.632        2746.597          43.000  
C 6  35997358.956   187447638.970         -18.581          42.000  
C 1  36819355.947   191728003.138        -488.492          43.000  
C 4  37075263.643   193060592.799        -514.327          43.000  
G 5  24448858.570   128479627.551       -4077.424          33.000  
J 1  37221021.362   195597797.875          87.218          44.000  
J 2  36960117.416   194226716.422       -1162.698          46.000  
C 9  37666955.017   196141688.504         105.914          42.000  
C 7  38260066.506   199230169.651         765.521          40.000  
G25  24946932.771   131096809.724        3278.051          28.000  
G21  22815586.970   119896708.465       -2002.859          45.000  
> 2017 10 10 10 24  6.7980000  0 18                     
G24  19617573.845   103091051.509        -486.415          50.000  
G15  20503827.625   107748334.501       -1633.221          50.000  
G20  20562270.088   108055458.206       -2979.459          47.000  
G18  20982631.908   110264472.377        1487.981          48.000  
G13  22542101.312   118459538.988       -2777.871          36.000  
C 3  37430790.130   194911928.342        -509.097          41.000  
G12  22338879.383   117391599.846        2942.823          47.000  
G10  22986624.328   120795535.421        2746.131          43.000  
C 6  35997359.741   187447642.768         -18.970          42.000  
C 1  36819374.619   191728100.925        -488.957          43.000  
C 4  37075283.449   193060695.756        -514.830          43.000  
G 5  24449013.807   128480443.241       -4078.641          33.000  
J 1  37221018.012   195597780.528          86.679          44.000  
J 2  36960161.739   194226949.061       -1163.135          46.000  
C 9  37666951.038   196141667.423         105.512          42.000  
C 7  38260037.111   199230016.688         764.941          39.000  
G25  24946809.573   131096154.158        3277.770          28.000  
G21  22815663.140   119897109.150       -2003.425          45.000  
> 2017 10 10 10 24  6.9980000  0 18                     
G24  19617592.273   103091148.765        -486.050          50.000  
G15  20503889.757   107748661.120       -1632.852          50.000  
G20  20562383.427   108056054.062       -2979.075          47.000  
G18  20982575.221   110264174.762        1488.417          48.000  
G13  22542206.999   118460094.529       -2777.255          36.000  
C 3  37430809.674   194912030.157        -508.879          41.000  
G12  22338767.317   117391011.274        2943.076          47.000  
G10  22986519.862   120794986.183        2746.387          43.000  
C 6  35997360.509   187447646.542         -18.851          42.000  
C 1  36819393.430   191728198.670        -488.491          43.000  
C 4  37075303.246   193060798.652        -514.378          43.000  
G 5  24449168.975   128481258.874       -4078.674          33.000  
J 1  37221014.801   195597763.139          87.162          44.000  
J 2  36960205.993   194227181.665       -1162.832          46.000  
C 9  37666946.989   196141646.299         105.750          42.000  
C 7  38260007.699   199229863.655         765.442          39.000  
G25  24946684.271   131095498.588        3277.871          28.000  
G21  22815739.476   119897509.811       -2003.167          45.000  
> 2017 10 10 10 24  7.1980000  0 18                     
G24  19617610.779   103091245.995        -485.686          50.000  
G15  20503951.949   107748987.694       -1632.447          50.000  
G20  20562496.767   108056649.889       -2978.698          47.000  
G18  20982518.595   110263877.133        1488.581          48.000  
G13  22542312.625   118460650.028       -2777.199          36.000  
C 3  37430829.210   194912131.920        -508.330          41.000  
G12  22338655.173   117390422.651        2943.485          47.000  
G10  22986415.353   120794436.887        2746.730          43.000  
C 6  35997361.311   187447650.235         -18.073          42.000  
C 1  36819412.137   191728296.357        -487.944          43.000  
C 4  37075323.079   193060901.511        -513.868          43.000  
G 5  24449324.168   128482074.420       -4077.585          33.000  
J 1  37221011.416   195597745.700          87.633          44.000  
J 2  36960250.247   194227414.222       -1162.336          46.000  
C 9  37666942.897   196141625.111         106.317          42.000  
C 7  38259978.269   199229710.577         765.985          40.000  
G25  24946558.368   131094842.894        3278.767          28.000  
G21  22815815.672   119897910.427       -2002.632          45.000  
> 2017 10 10 10 24  7.3980000  0 18                     
G24  19617629.293   103091343.252        -486.136          50.000  
G15  20504014.098   107749314.294       -1632.913          50.000  
G20  20562610.149   108057245.741       -2979.144          47.000  
G18  20982461.934   110263579.511        1488.240          48.000  
G13  22542418.260   118461205.534       -2777.583          36.000  
C 3  37430848.868   194912233.690        -508.667          41.000  
G12  22338543.117   117389834.041        2943.238          47.000  
G10  22986310.835   120793887.607        2746.312          43.000  
C 6  35997362.088   187447653.959         -18.557          42.000  
C 1  36819430.957   191728394.081        -488.594          43.000  
C 4  37075342.867   193061004.371        -514.226          43.000  
G 5  24449479.388   128482889.984       -4077.726          33.000  
J 1  37221008.170   195597728.270          87.367          44.000  
J 2  36960294.501   194227646.782       -1162.709          46.000  
C 9  37666938.648   196141603.928         106.177          42.000  
C 7  38259948.848   199229557.526         765.491          40.000  
G25  24946434.550   131094187.286        3278.025          28.000  
G21  22815891.904   119898311.080       -2003.154          45.000  
> 2017 10 10 10 24  7.5980000  0 18                     
G24  19617647.756   103091440.475        -486.196          50.000  
G15  20504076.186   107749640.844       -1632.828          49.000  
G20  20562723.410   108057841.561       -2979.140          47.000  
G18  20982405.352   110263281.849        1488.271          48.000  
G13  22542523.842   118461760.973       -2776.827          36.000  
C 3  37430868.237   194912335.420        -508.745          41.000  
G12  22338431.139   117389245.393        2943.223          47.000  
G10  22986206.308   120793338.285        2746.538          43.000  
C 6  35997362.969   187447657.611         -18.390          42.000  
C 1  36819449.655   191728491.713        -488.239          43.000  
C 4  37075362.638   193061107.177        -514.014          43.000  
G 5  24449634.747   128483705.512       -4077.316          33.000  
J 1  37221004.802   195597710.788          87.457          44.000  
J 2  36960338.685   194227879.289       -1162.556          46.000  
C 9  37666934.486   196141582.697         106.389          42.000  
C 7  38259919.427   199229404.422         765.295          40.000  
G25  24946310.496   131093531.559        3278.731          28.000  
G21  22815968.126   119898711.681       -2003.083          45.000  
> 2017 10 10 10 24  7.7980000  0 18                     
G24  19617666.279   103091537.733        -486.505          50.000  
G15  20504138.413   107749967.418       -1632.851          49.000  
G20  20562836.697   108058437.421       -2979.536          47.000  
G18  20982348.665   110262984.225        1488.131          47.000  
G13  22542629.565   118462316.472       -2777.834          36.000  
C 3  37430887.808   194912437.147        -508.876          41.000  
G12  22338319.196   117388656.770        2943.011          47.000  
G10  22986101.772   120792788.979        2746.538          43.000  
C 6  35997363.798   187447661.289         -18.810          42.000  
C 1  36819468.457   191728589.376        -488.440          43.000  
C 4  37075382.514   193061210.008        -514.277          43.000  
G 5  24449790.037   128484521.101       -4078.625          33.000  
J 1  37221001.469   195597693.334          87.152          44.000  
J 2  36960382.956   194228111.821       -1162.834          46.000  
C 9  37666930.316   196141561.490         106.003          42.000  
C 7  38259890.093   199229251.337         765.106          40.000  
G25  24946185.562   131092875.800        3279.017          28.000  
G21  22816044.288   119899112.321       -2003.322          45.000  
> 2017 10 10 10 24  7.9980000  0 18                     
G24  19617684.942   103091635.006        -486.241          50.000  
G15  20504200.580   107750294.016       -1632.874          49.000  
G20  20562950.114   108059033.289       -2979.336          47.000  
G18  20982292.074   110262686.623        1488.125          47.000  
G13  22542735.243   118462871.936       -2777.196          36.000  
C 3  37430907.274   194912538.878        -508.500          41.000  
G12  22338207.122   117388068.151        2943.228          47.000  
G10  22985997.298   120792239.699        2746.497          43.000  
C 6  35997364.583   187447664.935         -17.895          42.000  
C 1  36819487.190   191728687.048        -488.228          43.000  
C 4  37075402.320   193061312.829        -513.756          43.000  
G 5  24449945.213   128485336.624       -4077.826          33.000  
J 1  37220998.066   195597675.867          87.492          44.000  
J 2  36960427.175   194228344.346       -1162.451          46.000  
C 9  37666926.224   196141540.266         106.433          42.000  
C 7  38259860.794   199229098.238         765.668          40.000  
G25  24946060.251   131092220.157        3278.081          28.000  
G21  22816120.467   119899512.968       -2003.105          44.000  
> 2017 10 10 10 24  8.1980000  0 18                     
G24  19617703.535   103091732.332        -486.709          50.000  
G15  20504262.685   107750620.644       -1633.304          49.000  
G20  20563063.506   108059629.205       -2979.726          46.000  
G18  20982235.387   110262389.068        1487.506          47.000  
G13  22542841.009   118463427.453       -2777.330          36.000  
C 3  37430926.923   194912640.643        -509.030          41.000  
G12  22338095.074   117387479.579        2942.656          47.000  
G10  22985892.832   120791690.445        2746.177          43.000  
C 6  35997365.273   187447668.651         -18.351          42.000  
C 1  36819505.888   191728784.746        -488.660          43.000  
C 4  37075422.117   193061415.705        -514.418          43.000  
G 5  24450100.476   128486152.213       -4077.827          33.000  
J 1  37220994.777   195597658.436          87.120          44.000  
J 2  36960471.402   194228576.903       -1162.756          46.000  
C 9  37666921.992   196141519.081         106.026          42.000  
C 7  38259831.487   199228945.179         765.112          40.000  
G25  24945936.303   131091564.434        3278.556          27.000  
G21  22816196.750   119899913.671       -2003.732          45.000  
> 2017 10 10 10 24  8.3980000  0 18                     
G24  19617722.006   103091829.690        -486.868          50.000  
G15  20504324.808   107750947.289       -1633.318          49.000  
G20  20563176.845   108060225.155       -2979.973          46.000  
G18  20982178.796   110262091.516        1487.523          47.000  
G13  22542946.679   118463982.987       -2777.699          36.000  
C 3  37430946.318   194912742.411        -509.028          41.000  
G12  22337983.113   117386891.013        2942.626          47.000  
G10  22985788.236   120791141.211        2746.037          43.000  
C 6  35997365.770   187447672.374         -18.738          42.000  
C 1  36819524.699   191728882.455        -488.569          43.000  
C 4  37075441.845   193061518.553        -514.213          43.000  
G 5  24450255.687   128486967.814       -4078.131          33.000  
J 1  37220991.514   195597641.018          87.007          44.000  
J 2  36960515.682   194228809.486       -1162.987          46.000  
C 9  37666917.917   196141497.911         105.684          42.000  
C 7  38259801.996   199228792.128         765.515          40.000  
G25  24945811.682   131090908.764        3278.413          27.000  
G21  22816272.999   119900314.378       -2003.584          44.000  
> 2017 10 10 10 24  8.5980000  0 18                     
G24  19617740.469   103091927.062        -486.842          50.000  
G15  20504386.983   107751273.948       -1633.320          49.000  
G20  20563290.280   108060821.114       -2979.851          46.000  
G18  20982122.196   110261793.993        1487.645          47.000  
G13  22543052.331   118464538.524       -2777.818          36.000  
C 3  37430965.967   194912844.176        -508.905          41.000  
G12  22337871.004   117386302.449        2942.801          47.000  
G10  22985683.691   120790591.978        2746.074          43.000  
C 6  35997366.564   187447676.071         -18.427          42.000  
C 1  36819543.484   191728980.149        -488.499          43.000  
C 4  37075461.590   193061621.424        -514.284          43.000  
G 5  24450410.854   128487783.443       -4078.333          33.000  
J 1  37220988.242   195597623.599          87.164          44.000  
J 2  36960559.901   194229042.056       -1162.876          46.000  
C 9  37666913.799   196141476.715         105.912          42.000  
C 7  38259772.662   199228639.102         765.100          40.000  
G25  24945686.293   131090253.117        3278.204          27.000  
G21  22816349.239   119900715.118       -2003.663          44.000  
> 2017 10 10 10 24  8.7980000  0 18                     
G24  19617759.036   103092024.488        -487.022          50.000  
G15  20504449.080   107751600.639       -1633.355          49.000  
G20  20563403.663   108061417.123       -2979.967          46.000  
G18  20982065.570   110261496.514        1487.518          47.000  
G13  22543157.931   118465094.075       -2777.535          36.000  
C 3  37430985.520   194912945.970        -508.859          41.000  
G12  22337758.983   117385713.931        2942.739          47.000  
G10  22985579.165   120790042.773        2746.150          43.000  
C 6  35997367.498   187447679.808         -18.510          42.000  
C 1  36819562.243   191729077.898        -488.686          43.000  
C 4  37075481.274   193061724.309        -514.350          43.000  
G 5  24450566.065   128488599.038       -4077.882          34.000  
J 1  37220984.926   195597606.212          87.026          44.000  
J 2  36960604.251   194229274.658       -1162.921          46.000  
C 9  37666909.768   196141455.559         105.909          42.000  
C 7  38259743.311   199228486.090         765.271          40.000  
G25  24945560.879   131089597.416        3278.675          27.000  
G21  22816425.409   119901115.892       -2003.820          44.000  
> 2017 10 10 10 24  8.9980000  0 18                     
G24  19617777.524   103092121.952        -487.468          50.000  
G15  20504511.176   107751927.366       -1633.688          49.000  
G20  20563517.177   108062013.167       -2980.283          46.000  
G18  20982009.031   110261199.076        1486.910          47.000  
G13  22543263.618   118465649.674       -2778.155          36.000  
C 3  37431005.021   194913047.786        -508.957          41.000  
G12  22337646.952   117385125.434        2942.472          47.000  
G10  22985474.646   120789493.607        2745.763          43.000  
C 6  35997368.143   187447683.563         -18.814          42.000  
C 1  36819581.090   191729175.633        -488.600          43.000  
C 4  37075501.001   193061827.220        -514.525          43.000  
G 5  24450721.337   128489414.713       -4078.487          34.000  
J 1  37220981.532   195597588.836          86.870          44.000  
J 2  36960648.566   194229507.275       -1163.022          46.000  
C 9  37666905.667   196141434.412         105.724          42.000  
C 7  38259713.916   199228333.099         765.076          40.000  
G25  24945437.069   131088941.777        3278.226          27.000  
G21  22816501.728   119901516.698       -2004.034          44.000  
> 2017 10 10 10 24  9.1980000  0 18                     
G24  19617796.144   103092219.390        -487.465          50.000  
G15  20504573.282   107752254.052       -1633.631          49.000  
G20  20563630.560   108062609.194       -2980.327          46.000  
G18  20981952.458   110260901.587        1487.178          47.000  
G13  22543369.349   118466205.213       -2777.963          36.000  
C 3  37431024.426   194913149.558        -509.031          41.000  
G12  22337534.948   117384536.904        2942.573          47.000  
G10  22985370.067   120788944.408        2745.854          43.000  
C 6  35997368.815   187447687.265         -18.583          42.000  
C 1  36819599.753   191729273.344        -488.617          43.000  
C 4  37075520.676   193061930.087        -514.633          43.000  
G 5  24450876.339   128490230.301       -4077.536          34.000  
J 1  37220978.278   195597571.427          86.901          44.000  
J 2  36960692.793   194229739.861       -1163.110          46.000  
C 9  37666901.532   196141413.220         105.819          42.000  
C 7  38259684.669   199228180.072         764.716          40.000  
G25  24945311.419   131088286.073        3278.370          27.000  
G21  22816577.985   119901917.477       -2004.148          44.000  
> 2017 10 10 10 24  9.3980000  0 18                     
G24  19617814.772   103092316.866        -487.566          50.000  
G15  20504635.422   107752580.774       -1633.768          49.000  
G20  20563744.064   108063205.246       -2980.369          46.000  
G18  20981895.884   110260604.149        1487.048          47.000  
G13  22543474.993   118466760.786       -2778.140          36.000  
C 3  37431044.022   194913251.348        -508.975          41.000  
G12  22337422.970   117383948.409        2942.446          47.000  
G10  22985265.506   120788395.229        2745.601          43.000  
C 6  35997369.565   187447690.991         -18.825          42.000  
C 1  36819618.555   191729371.071        -488.600          43.000  
C 4  37075540.386   193062032.952        -514.380          43.000  
G 5  24451031.497   128491045.991       -4079.009          34.000  
J 1  37220974.927   195597554.041          86.735          44.000  
J 2  36960736.986   194229972.462       -1163.125          46.000  
C 9  37666897.448   196141392.056         105.628          42.000  
C 7  38259655.414   199228027.075         764.612          40.000  
G25  24945186.074   131087630.404        3278.317          27.000  
G21  22816654.347   119902318.292       -2004.257          44.000  
> 2017 10 10 10 24  9.5980000  0 18                     
G24  19617833.313   103092414.381        -487.532          50.000  
G15  20504697.501   107752907.515       -1633.652          49.000  
G20  20563857.526   108063801.338       -2980.397          46.000  
G18  20981839.232   110260306.737        1486.952          47.000  
G13  22543580.645   118467316.361       -2777.870          36.000  
C 3  37431063.436   194913353.163        -509.087          41.000  
G12  22337310.835   117383359.930        2942.405          47.000  
G10  22985161.040   120787846.069        2745.701          43.000  
C 6  35997370.263   187447694.735         -18.521          42.000  
C 1  36819637.218   191729468.828        -488.864          43.000  
C 4  37075560.271   193062135.854        -514.147          43.000  
G 5  24451186.674   128491861.594       -4078.035          34.000  
J 1  37220971.586   195597536.658          86.739          44.000  
J 2  36960781.248   194230205.080       -1163.066          46.000  
C 9  37666893.365   196141370.875         106.001          42.000  
C 7  38259626.054   199227874.090         764.764          40.000  
G25  24945061.593   131086974.696        3278.786          27.000  
G21  22816730.622   119902719.118       -2004.127          44.000  
> 2017 10 10 10 24  9.7980000  0 18                     
G24  19617851.871   103092511.897        -487.624          50.000  
G15  20504759.728   107753234.248       -1633.760          49.000  
G20  20563970.848   108064397.425       -2980.461          46.000  
G18  20981782.624   110260009.318        1486.924          47.000  
G13  22543686.463   118467871.933       -2777.695          36.000  
C 3  37431082.866   194913454.952        -509.156          41.000  
G12  22337198.691   117382771.437        2942.240          47.000  
G10  22985056.679   120787296.899        2745.819          43.000  
C 6  35997371.022   187447698.457         -18.723          42.000  
C 1  36819656.012   191729566.546        -488.795          43.000  
C 4  37075580.024   193062238.741        -514.557          43.000  
G 5  24451341.893   128492677.210       -4077.636          34.000  
J 1  37220968.357   195597519.261          86.954          44.000  
J 2  36960825.519   194230437.679       -1163.041          46.000  
C 9  37666889.273   196141349.694         105.821          42.000  
C 7  38259596.755   199227721.079         764.880          39.000  
G25  24944937.225   131086319.010        3278.295          27.000  
G21  22816806.984   119903119.963       -2004.206          44.000  
> 2017 10 10 10 24  9.9980000  0 18                     
G24  19617870.499   103092609.456        -487.768          50.000  
G15  20504821.720   107753561.018       -1633.829          49.000  
G20  20564084.387   108064993.560       -2980.613          46.000  
G18  20981726.094   110259711.937        1486.982          47.000  
G13  22543792.046   118468427.554       -2778.290          36.000  
C 3  37431102.463   194913556.751        -509.013          41.000  
G12  22337086.617   117382182.978        2942.354          47.000  
G10  22984952.108   120786747.755        2745.758          43.000  
C 6  35997371.729   187447702.209         -18.690          42.000  
C 1  36819674.745   191729664.280        -488.698          43.000  
C 4  37075599.891   193062341.650        -514.495          43.000  
G 5  24451497.314   128493492.926       -4078.109          34.000  
J 1  37220965.077   195597501.891          86.826          44.000  
J 2  36960869.764   194230670.302       -1163.080          46.000  
C 9  37666885.259   196141328.515         106.151          42.000  
C 7  38259567.412   199227568.094         764.917          39.000  
G25  24944812.430   131085663.371        3278.256          27.000  
G21  22816883.346   119903520.835       -2004.333          44.000  
> 2017 10 10 10 24 10.1980000  0 18                     
G24  19617889.101   103092707.028        -487.811          50.000  
G15  20504883.913   107753887.782       -1633.768          49.000  
G20  20564197.718   108065589.699       -2980.730          46.000  
G18  20981669.564   110259414.563        1486.941          47.000  
G13  22543897.689   118468983.134       -2777.969          36.000  
C 3  37431121.990   194913658.561        -509.130          41.000  
G12  22336974.648   117381594.514        2942.301          47.000  
G10  22984847.608   120786198.607        2745.800          43.000  
C 6  35997372.445   187447705.929         -18.627          42.000  
C 1  36819693.408   191729762.011        -488.499          43.000  
C 4  37075619.741   193062444.539        -514.519          43.000  
G 5  24451652.586   128494308.560       -4077.896          34.000  
J 1  37220961.656   195597484.509          86.899          44.000  
J 2  36960914.018   194230902.919       -1163.024          46.000  
C 9  37666881.429   196141307.344         106.245          42.000  
C 7  38259537.983   199227415.113         764.832          40.000  
G25  24944687.111   131085007.603        3278.892          27.000  
G21  22816959.578   119903921.708       -2004.358          44.000  
> 2017 10 10 10 24 10.3980000  0 18                     
G24  19617907.677   103092804.614        -487.927          50.000  
G15  20504946.132   107754214.552       -1633.823          49.000  
G20  20564311.205   108066185.850       -2980.718          46.000  
G18  20981612.999   110259117.207        1486.698          47.000  
G13  22544003.342   118469538.735       -2777.905          36.000  
C 3  37431141.499   194913760.350        -508.946          41.000  
G12  22336862.670   117381006.055        2942.314          47.000  
G10  22984743.116   120785649.479        2745.752          43.000  
C 6  35997373.116   187447709.661         -18.556          42.000  
C 1  36819712.141   191729859.752        -488.723          43.000  
C 4  37075639.407   193062547.416        -514.370          43.000  
G 5  24451807.910   128495124.250       -4078.229          34.000  
J 1  37220958.350   195597467.127          86.951          44.000  
J 2  36960958.316   194231135.534       -1163.122          46.000  
C 9  37666877.450   196141286.179         105.996          42.000  
C 7  38259508.614   199227262.125         764.832          40.000  
G25  24944562.246   131084351.907        3278.338          27.000  
G21  22817035.870   119904322.595       -2004.506          44.000  
> 2017 10 10 10 24 10.5980000  0 18                     
G24  19617926.270   103092902.196        -487.424          50.000  
G15  20505008.281   107754541.313       -1633.250          49.000  
G20  20564424.684   108066782.000       -2980.355          46.000  
G18  20981556.347   110258819.833        1487.204          47.000  
G13  22544109.038   118470094.314       -2777.582          36.000  
C 3  37431161.122   194913862.115        -508.309          41.000  
G12  22336750.753   117380417.580        2942.855          47.000  
G10  22984638.563   120785100.320        2746.189          43.000  
C 6  35997374.041   187447713.352         -17.888          42.000  
C 1  36819730.865   191729957.454        -488.249          43.000  
C 4  37075659.144   193062650.280        -513.817          43.000  
G 5  24451963.217   128495939.881       -4077.872          34.000  
J 1  37220955.060   195597449.727          87.396          44.000  
J 2  36961002.578   194231368.123       -1162.450          46.000  
C 9  37666873.515   196141264.971         106.436          42.000  
C 7  38259479.210   199227109.122         765.466          40.000  
G25  24944437.608   131083696.209        3278.847          27.000  
G21  22817112.136   119904723.474       -2003.864          44.000  
> 2017 10 10 10 24 10.7980000  0 18                     
G24  19617944.942   103092999.813        -488.473          50.000  
G15  20505070.491   107754868.097       -1634.398          49.000  
G20  20564538.093   108067378.180       -2981.430          46.000  
G18  20981499.817   110258522.484        1486.311          47.000  
G13  22544214.803   118470649.896       -2778.409          36.000  
C 3  37431180.544   194913963.892        -509.212          41.000  
G12  22336638.766   117379829.128        2941.831          47.000  
G10  22984534.001   120784551.178        2745.277          43.000  
C 6  35997374.853   187447717.076         -18.825          42.000  
C 1  36819749.423   191730055.166        -489.134          43.000  
C 4  37075678.854   193062753.149        -514.857          43.000  
G 5  24452118.437   128496755.546       -4079.181          34.000  
J 1  37220951.727   195597432.322          86.651          44.000  
J 2  36961046.884   194231600.733       -1163.556          46.000  
C 9  37666869.423   196141243.767         105.638          42.000  
C 7  38259449.815   199226956.146         764.325          40.000  
G25  24944313.144   131083040.406        3278.936          27.000  
G21  22817188.368   119905124.378       -2004.992          44.000  
> 2017 10 10 10 24 10.9980000  0 18                     
G24  19617963.517   103093097.477        -488.244          50.000  
G15  20505132.622   107755194.910       -1633.935          49.000  
G20  20564651.528   108067974.401       -2981.108          46.000  
G18  20981443.261   110258225.184        1486.500          47.000  
G13  22544320.430   118471205.527       -2778.338          36.000  
C 3  37431200.053   194914065.696        -508.781          41.000  
G12  22336526.840   117379240.705        2942.163          47.000  
G10  22984429.413   120784002.078        2745.575          43.000  
C 6  35997375.472   187447720.829         -18.757          42.000  
C 1  36819768.269   191730152.899        -488.572          43.000  
C 4  37075698.599   193062856.049        -514.525          43.000  
G 5  24452273.761   128497571.184       -4077.935          34.000  
J 1  37220948.333   195597414.961          87.022          44.000  
J 2  36961091.059   194231833.356       -1162.933          46.000  
C 9  37666865.218   196141222.595         106.215          42.000  
C 7  38259420.473   199226803.174         764.520          40.000  
G25  24944187.930   131082384.749        3278.439          27.000  
G21  22817264.651   119905525.314       -2004.627          44.000  
> 2017 10 10 10 24 11.1980000  0 18                     
G24  19617982.163   103093195.135        -488.044          50.000  
G15  20505194.823   107755521.720       -1633.959          49.000  
G20  20564764.832   108068570.622       -2981.019          46.000  
G18  20981386.818   110257927.865        1486.752          47.000  
G13  22544426.178   118471761.126       -2778.085          36.000  
C 3  37431219.580   194914167.490        -508.840          41.000  
G12  22336414.810   117378652.275        2942.296          47.000  
G10  22984324.860   120783452.964        2745.797          43.000  
C 6  35997376.188   187447724.539         -18.443          42.000  
C 1  36819787.133   191730250.622        -488.477          43.000  
C 4  37075718.413   193062958.919        -514.233          43.000  
G 5  24452428.928   128498386.848       -4077.743          34.000  
J 1  37220944.913   195597397.575          87.172          44.000  
J 2  36961135.208   194232065.973       -1162.780          46.000  
C 9  37666861.169   196141201.400         105.987          42.000  
C 7  38259391.087   199226650.173         765.338          40.000  
G25  24944063.179   131081728.982        3279.154          27.000  
G21  22817340.996   119905926.243       -2004.269          44.000  
> 2017 10 10 10 24 11.3980000  0 18                     
G24  19618000.678   103093292.779        -488.460          50.000  
G15  20505256.955   107755848.488       -1633.989          49.000  
G20  20564878.224   108069166.805       -2981.059          46.000  
G18  20981330.227   110257630.531        1486.490          47.000  
G13  22544531.856   118472316.684       -2778.001          36.000  
C 3  37431239.133   194914269.233        -508.935          41.000  
G12  22336302.875   117378063.802        2942.160          47.000  
G10  22984220.299   120782903.816        2745.437          43.000  
C 6  35997376.729   187447728.204         -18.479          42.000  
C 1  36819805.918   191730348.298        -488.632          43.000  
C 4  37075738.071   193063061.763        -514.554          43.000  
G 5  24452584.069   128499202.502       -4078.413          34.000  
J 1  37220941.650   195597380.145          87.087          44.000  
J 2  36961179.584   194232298.548       -1162.970          46.000  
C 9  37666856.990   196141180.155         106.012          42.000  
C 7  38259361.770   199226497.164         765.063          40.000  
G25  24943937.956   131081073.181        3279.208          27.000  
G21  22817417.236   119906327.173       -2004.898          44.000  
> 2017 10 10 10 24 11.5980000  0 18                     
G24  19618019.262   103093390.444        -488.143          50.000  
G15  20505319.156   107756175.287       -1633.824          49.000  
G20  20564991.677   108069763.040       -2981.013          46.000  
G18  20981273.531   110257333.230        1486.637          47.000  
G13  22544637.526   118472872.261       -2777.926          36.000  
C 3  37431258.686   194914370.989        -508.646          41.000  
G12  22336190.958   117377475.352        2942.551          47.000  
G10  22984115.781   120782354.679        2745.950          43.000  
C 6  35997377.392   187447731.893         -18.065          42.000  
C 1  36819824.686   191730445.986        -488.170          43.000  
C 4  37075757.798   193063164.616        -514.160          43.000  
G 5  24452739.211   128500018.122       -4077.832          34.000  
J 1  37220938.343   195597362.741          87.231          44.000  
J 2  36961223.838   194232531.138       -1162.811          46.000  
C 9  37666853.064   196141158.919         106.401          42.000  
C 7  38259332.288   199226344.151         765.186          40.000  
G25  24943811.826   131080417.467        3278.428          27.000  
G21  22817493.581   119906728.105       -2004.626          44.000  
> 2017 10 10 10 24 11.7980000  0 18                     
G24  19618037.812   103093488.110        -488.350          50.000  
G15  20505381.375   107756502.060       -1633.795          49.000  
G20  20565105.042   108070359.248       -2980.953          46.000  
G18  20981216.931   110257035.906        1486.528          47.000  
G13  22544743.248   118473427.818       -2777.655          36.000  
C 3  37431278.274   194914472.711        -508.488          41.000  
G12  22336078.972   117376886.882        2942.425          47.000  
G10  22984011.376   120781805.527        2745.775          43.000  
C 6  35997377.994   187447735.551         -18.394          42.000  
C 1  36819843.524   191730543.640        -488.116          43.000  
C 4  37075777.657   193063267.423        -514.040          43.000  
G 5  24452894.465   128500833.737       -4077.778          34.000  
J 1  37220935.045   195597345.299          87.248          44.000  
J 2  36961268.127   194232763.692       -1162.767          46.000  
C 9  37666848.980   196141137.651         106.402          42.000  
C 7  38259302.911   199226191.123         765.021          40.000  
G25  24943687.100   131079761.633        3279.297          27.000  
G21  22817569.951   119907129.026       -2004.733          44.000  
> 2017 10 10 10 24 11.9980000  0 18                     
G24  19618056.466   103093585.775        -488.232          50.000  
G15  20505443.515   107756828.834       -1633.700          49.000  
G20  20565218.364   108070955.465       -2980.909          46.000  
G18  20981160.331   110256738.583        1486.735          47.000  
G13  22544848.901   118473983.367       -2777.750          36.000  
C 3  37431297.853   194914574.432        -508.615          41.000  
G12  22335966.976   117376298.408        2942.526          47.000  
G10  22983906.823   120781256.369        2745.843          43.000  
C 6  35997378.605   187447739.174         -17.928          42.000  
C 1  36819862.178   191730641.287        -488.086          43.000  
C 4  37075797.245   193063370.221        -513.857          43.000  
G 5  24453049.667   128501649.352       -4077.765          34.000  
J 1  37220931.808   195597327.848          87.322          44.000  
J 2  36961312.424   194232996.237       -1162.499          46.000  
C 9  37666845.063   196141116.369         106.662          42.000  
C 7  38259273.463   199226038.081         765.350          40.000  
G25  24943561.729   131079105.781        3279.312          26.000  
G21  22817646.191   119907529.948       -2004.604          44.000  
> 2017 10 10 10 24 12.1980000  0 18                     
G24  19618075.033   103093683.482        -488.496          50.000  
G15  20505505.673   107757155.637       -1633.986          49.000  
G20  20565331.816   108071551.723       -2981.211          46.000  
G18  20981103.793   110256441.300        1486.374          47.000  
G13  22544954.492   118474538.925       -2777.516          36.000  
C 3  37431317.458   194914676.145        -508.654          41.000  
G12  22335855.016   117375709.962        2942.278          47.000  
G10  22983802.357   120780707.233        2745.690          43.000  
C 6  35997379.337   187447742.838         -18.214          42.000  
C 1  36819880.928   191730738.954        -488.365          43.000  
C 4  37075817.024   193063473.051        -514.144          43.000  
G 5  24453204.844   128502464.963       -4077.981          34.000  
J 1  37220928.449   195597310.413          87.339          44.000  
J 2  36961356.660   194233228.809       -1162.766          46.000  
C 9  37666841.032   196141095.117         106.311          42.000  
C 7  38259244.112   199225885.055         765.277          40.000  
G25  24943436.096   131078450.001        3278.707          26.000  
G21  22817722.510   119907930.908       -2004.922          44.000  
> 2017 10 10 10 24 12.3980000  0 18                     
G24  19618093.556   103093781.220        -488.746          50.000  
G15  20505567.787   107757482.450       -1634.047          49.000  
G20  20565445.304   108072147.999       -2981.274          46.000  
G18  20981047.202   110256144.032        1486.343          47.000  
G13  22545060.240   118475094.520       -2777.954          36.000  
C 3  37431337.116   194914777.884        -508.565          41.000  
G12  22335743.142   117375121.523        2942.307          47.000  
G10  22983697.909   120780158.117        2745.562          43.000  
C 6  35997380.053   187447746.497         -18.006          42.000  
C 1  36819899.739   191730836.616        -488.281          43.000  
C 4  37075836.769   193063575.876        -514.144          43.000  
G 5  24453360.072   128503280.629       -4078.388          35.000  
J 1  37220925.055   195597292.989          87.171          44.000  
J 2  36961400.879   194233461.382       -1162.843          46.000  
C 9  37666836.896   196141073.850         106.359          42.000  
C 7  38259214.726   199225732.040         765.411          40.000  
G25  24943310.848   131077794.139        3279.290          26.000  
G21  22817798.706   119908331.876       -2004.878          44.000  
> 2017 10 10 10 24 12.5980000  0 18                     
G24  19618112.219   103093878.952        -488.584          50.000  
G15  20505630.006   107757809.274       -1633.971          49.000  
G20  20565558.704   108072744.295       -2981.389          46.000  
G18  20980990.672   110255846.774        1486.272          48.000  
G13  22545165.954   118475650.094       -2777.749          36.000  
C 3  37431356.590   194914879.606        -508.555          41.000  
G12  22335631.173   117374533.096        2942.264          47.000  
G10  22983593.478   120779608.992        2745.654          43.000  
C 6  35997380.585   187447750.160         -18.244          42.000  
C 1  36819918.498   191730934.273        -488.104          43.000  
C 4  37075856.567   193063678.683        -513.788          43.000  
G 5  24453515.204   128504096.220       -4077.985          34.000  
J 1  37220921.608   195597275.547          87.363          44.000  
J 2  36961445.089   194233693.947       -1162.613          46.000  
C 9  37666832.708   196141052.575         106.595          42.000  
C 7  38259185.349   199225579.033         765.344          40.000  
G25  24943185.485   131077138.321        3279.017          26.000  
G21  22817875.025   119908732.847       -2004.580          44.000  
> 2017 10 10 10 24 12.7980000  0 18                     
G24  19618130.847   103093976.697        -488.732          50.000  
G15  20505692.224   107758136.078       -1633.965          49.000  
G20  20565672.174   108073340.583       -2981.459          46.000  
G18  20980934.185   110255549.499        1486.431          47.000  
G13  22545271.606   118476205.647       -2777.814          36.000  
C 3  37431376.205   194914981.305        -508.326          41.000  
G12  22335519.186   117373944.649        2942.147          47.000  
G10  22983488.873   120779059.857        2745.691          43.000  
C 6  35997381.266   187447753.798         -18.174          42.000  
C 1  36819937.318   191731031.916        -488.062          43.000  
C 4  37075876.346   193063781.490        -513.893          43.000  
G 5  24453670.450   128504911.821       -4077.662          35.000  
J 1  37220918.345   195597258.099          87.363          44.000  
J 2  36961489.352   194233926.500       -1162.679          46.000  
C 9  37666828.668   196141031.288         106.677          42.000  
C 7  38259156.128   199225425.992         765.308          40.000  
G25  24943059.268   131076482.444        3279.615          26.000  
G21  22817951.282   119909133.828       -2004.802          44.000  
> 2017 10 10 10 24 12.9980000  0 18                     
G24  19618149.467   103094074.462        -488.926          50.000  
G15  20505754.347   107758462.897       -1634.098          49.000  
G20  20565785.635   108073936.880       -2981.524          46.000  
G18  20980877.629   110255252.261        1486.145          47.000  
G13  22545377.232   118476761.207       -2778.041          36.000  
C 3  37431395.731   194915083.019        -508.521          41.000  
G12  22335407.173   117373356.203        2942.209          47.000  
G10  22983384.276   120778510.734        2745.537          43.000  
C 6  35997381.929   187447757.420         -18.272          42.000  
C 1  36819956.051   191731129.559        -488.378          43.000  
C 4  37075896.022   193063884.296        -514.010          43.000  
G 5  24453825.731   128505727.474       -4078.427          35.000  
J 1  37220915.134   195597240.658          87.212          44.000  
J 2  36961533.527   194234159.058       -1162.820          46.000  
C 9  37666824.611   196141009.997         106.368          42.000  
C 7  38259126.742   199225272.975         765.039          40.000  
G25  24942933.766   131075826.592        3279.428          26.000  
G21  22818027.610   119909534.821       -2005.105          44.000  
> 2017 10 10 10 24 13.1980000  0 18                     
G24  19618168.174   103094172.289        -489.106          50.000  
G15  20505816.470   107758789.774       -1634.381          49.000  
G20  20565899.140   108074533.258       -2981.854          46.000  
G18  20980821.152   110254955.059        1486.007          47.000  
G13  22545482.946   118477316.807       -2777.799          36.000  
C 3  37431415.276   194915184.770        -508.626          41.000  
G12  22335295.256   117372767.817        2941.935          47.000  
G10  22983279.758   120777961.658        2745.447          43.000  
C 6  35997382.688   187447761.094         -18.140          42.000  
C 1  36819974.828   191731227.231        -488.279          43.000  
C 4  37075915.801   193063987.149        -514.373          43.000  
G 5  24453980.942   128506543.120       -4078.365          35.000  
J 1  37220911.827   195597223.251          86.978          44.000  
J 2  36961577.737   194234391.658       -1163.062          46.000  
C 9  37666820.536   196140988.741         106.442          42.000  
C 7  38259097.495   199225119.989         764.929          40.000  
G25  24942809.843   131075170.798        3278.716          26.000  
G21  22818103.902   119909935.865       -2005.175          44.000  
> 2017 10 10 10 24 13.3980000  0 18                     
G24  19618186.819   103094270.178        -489.372          50.000  
G15  20505878.776   107759116.687       -1634.615          49.000  
G20  20566012.663   108075129.676       -2982.172          46.000  
G18  20980764.700   110254657.934        1485.610          47.000  
G13  22545588.720   118477872.473       -2778.229          36.000  
C 3  37431434.671   194915286.538        -508.814          41.000  
G12  22335183.339   117372179.473        2941.683          47.000  
G10  22983175.240   120777412.628        2745.097          43.000  
C 6  35997383.238   187447764.804         -18.489          42.000  
C 1  36819993.587   191731324.958        -488.598          43.000  
C 4  37075935.546   193064090.011        -514.397          43.000  
G 5  24454136.135   128507358.823       -4078.444          35.000  
J 1  37220908.573   195597205.885          86.897          44.000  
J 2  36961621.851   194234624.287       -1163.156          46.000  
C 9  37666816.331   196140967.525         106.189          42.000  
C 7  38259068.170   199224967.032         764.905          40.000  
G25  24942684.795   131074514.973        3279.183          26.000  
G21  22818180.133   119910336.963       -2005.555          44.000  
> 2017 10 10 10 24 13.5980000  0 18                     
G24  19618205.473   103094368.074        -489.510          50.000  
G15  20505941.012   107759443.614       -1634.752          49.000  
G20  20566126.089   108075726.117       -2982.321          46.000  
G18  20980708.118   110254360.801        1485.420          47.000  
G13  22545694.346   118478428.124       -2778.485          36.000  
C 3  37431454.320   194915388.331        -508.898          41.000  
G12  22335071.300   117371591.128        2941.703          47.000  
G10  22983070.800   120776863.604        2745.011          43.000  
C 6  35997383.796   187447768.512         -18.572          42.000  
C 1  36820012.267   191731422.668        -488.818          43.000  
C 4  37075955.474   193064192.897        -514.620          43.000  
G 5  24454291.416   128508174.526       -4078.440          35.000  
J 1  37220905.257   195597188.516          86.777          44.000  
J 2  36961666.201   194234856.926       -1163.302          46.000  
C 9  37666812.187   196140946.307         106.095          42.000  
C 7  38259038.776   199224814.084         764.862          40.000  
G25  24942559.267   131073859.174        3279.160          26.000  
G21  22818256.399   119910738.069       -2005.617          44.000  
> 2017 10 10 10 24 13.7980000  0 18                     
G24  19618224.119   103094466.009        -489.500          50.000  
G15  20506003.213   107759770.564       -1634.456          49.000  
G20  20566239.620   108076322.580       -2982.171          46.000  
G18  20980651.579   110254063.709        1485.647          47.000  
G13  22545800.042   118478983.783       -2777.930          36.000  
C 3  37431473.882   194915490.126        -508.854          41.000  
G12  22334959.357   117371002.818        2941.841          47.000  
G10  22982966.265   120776314.597        2745.235          43.000  
C 6  35997384.416   187447772.227         -18.261          42.000  
C 1  36820031.166   191731520.388        -488.200          43.000  
C 4  37075975.455   193064295.772        -514.188          43.000  
G 5  24454446.618   128508990.241       -4077.871          35.000  
J 1  37220901.881   195597171.159          86.959          44.000  
J 2  36961710.437   194235089.572       -1163.038          46.000  
C 9  37666808.199   196140925.105         106.186          42.000  
C 7  38259009.424   199224661.154         764.966          40.000  
G25  24942435.152   131073203.395        3279.009          26.000  
G21  22818332.657   119911139.211       -2005.454          44.000  
> 2017 10 10 10 24 13.9980000  0 18                     
G24  19618242.782   103094564.008        -490.074          50.000  
G15  20506065.415   107760097.565       -1634.975          49.000  
G20  20566353.169   108076919.110       -2982.578          46.000  
G18  20980595.058   110253766.663        1485.248          48.000  
G13  22545905.651   118479539.503       -2778.572          36.000  
C 3  37431493.374   194915591.951        -509.185          41.000  
G12  22334847.388   117370414.545        2941.406          47.000  
G10  22982861.764   120775765.647        2744.695          43.000  
C 6  35997384.965   187447775.984         -18.492          42.000  
C 1  36820049.916   191731618.152        -488.566          43.000  
C 4  37075995.200   193064398.692        -514.530          43.000  
G 5  24454601.856   128509806.029       -4079.102          35.000  
J 1  37220898.591   195597153.845          86.716          44.000  
J 2  36961754.717   194235322.258       -1163.316          46.000  
C 9  37666804.116   196140903.919         105.900          42.000  
C 7  38258980.125   199224508.278         764.691          40.000  
G25  24942310.540   131072547.666        3278.865          26.000  
G21  22818408.897   119911540.398       -2005.952          44.000  
> 2017 10 10 10 24 14.1980000  0 18                     
G24  19618261.331   103094662.033        -490.480          50.000  
G15  20506127.616   107760424.584       -1635.350          49.000  
G20  20566466.717   108077515.672       -2983.120          46.000  
G18  20980538.589   110253469.640        1485.148          48.000  
G13  22546011.321   118480095.215       -2778.674          36.000  
C 3  37431512.962   194915693.805        -509.859          41.000  
G12  22334735.366   117369826.296        2940.993          47.000  
G10  22982757.299   120775216.700        2744.306          43.000  
C 6  35997385.716   187447779.747         -18.743          42.000  
C 1  36820068.710   191731715.938        -489.099          43.000  
C 4  37076014.901   193064501.627        -514.917          43.000  
G 5  24454757.136   128510621.790       -4079.224          35.000  
J 1  37220895.337   195597136.545          86.227          44.000  
J 2  36961799.111   194235554.969       -1163.782          46.000  
C 9  37666800.102   196140882.747         105.890          42.000  
C 7  38258950.818   199224355.397         764.331          40.000  
G25  24942186.635   131071891.894        3278.734          26.000  
G21  22818485.233   119911941.620       -2006.351          44.000  
> 2017 10 10 10 24 14.3980000  0 18                     
G24  19618279.951   103094760.069        -490.194          50.000  
G15  20506189.887   107760751.606       -1634.881          49.000  
G20  20566580.301   108078112.235       -2982.644          46.000  
G18  20980482.120   110253172.645        1485.105          48.000  
G13  22546117.043   118480650.974       -2778.702          36.000  
C 3  37431532.480   194915795.636        -509.102          41.000  
G12  22334623.336   117369238.047        2941.488          47.000  
G10  22982652.894   120774667.755        2745.028          43.000  
C 6  35997386.448   187447783.525         -18.508          42.000  
C 1  36820087.486   191731813.702        -488.712          43.000  
C 4  37076034.690   193064604.563        -514.452          43.000  
G 5  24454912.400   128511437.571       -4078.633          35.000  
J 1  37220892.004   195597119.232          86.812          44.000  
J 2  36961843.417   194235787.668       -1163.350          46.000  
C 9  37666796.054   196140861.575         106.215          42.000  
C 7  38258921.432   199224202.530         764.563          40.000  
G25  24942061.970   131071236.138        3278.738          26.000  
G21  22818561.586   119912342.842       -2006.024          44.000  
> 2017 10 10 10 24 14.5980000  0 18                     
G24  19618298.605   103094858.128        -490.359          50.000  
G15  20506252.062   107761078.644       -1635.165          49.000  
G20  20566693.902   108078708.826       -2983.017          46.000  
G18  20980425.590   110252875.649        1484.907          48.000  
G13  22546222.730   118481206.681       -2778.548          36.000  
C 3  37431551.946   194915897.483        -509.222          41.000  
G12  22334511.375   117368649.808        2941.255          47.000  
G10  22982548.446   120774118.826        2744.739          43.000  
C 6  35997387.138   187447787.293         -18.767          42.000  
C 1  36820106.237   191731911.475        -488.636          43.000  
C 4  37076054.365   193064707.490        -514.729          43.000  
G 5  24455067.576   128512253.359       -4079.363          35.000  
J 1  37220888.680   195597101.934          86.516          44.000  
J 2  36961887.801   194236020.367       -1163.515          46.000  
C 9  37666791.970   196140840.407         105.921          42.000  
C 7  38258892.072   199224049.651         764.508          40.000  
G25  24941937.088   131070580.319        3279.383          26.000  
G21  22818638.009   119912744.079       -2006.091          44.000  
> 2017 10 10 10 24 14.7980000  0 18                     
G24  19618317.259   103094956.221        -490.547          50.000  
G15  20506314.246   107761405.698       -1635.269          49.000  
G20  20566807.328   108079305.442       -2983.202          46.000  
G18  20980369.156   110252578.690        1484.761          48.000  
G13  22546328.391   118481762.426       -2778.330          36.000  
C 3  37431571.490   194915999.331        -509.310          41.000  
G12  22334399.336   117368061.588        2941.037          47.000  
G10  22982444.058   120773569.918        2744.500          43.000  
C 6  35997387.844   187447791.066         -18.885          42.000  
C 1  36820124.987   191732009.268        -488.926          43.000  
C 4  37076074.197   193064810.434        -514.570          43.000  
G 5  24455222.752   128513069.143       -4079.199          35.000  
J 1  37220885.294   195597084.640          86.411          44.000  
J 2  36961932.029   194236253.081       -1163.613          46.000  
C 9  37666788.000   196140819.237         105.791          42.000  
C 7  38258862.685   199223896.796         764.227          40.000  
G25  24941812.546   131069924.583        3278.631          26.000  
G21  22818714.424   119913145.348       -2006.268          44.000  
> 2017 10 10 10 24 14.9980000  0 18                     
G24  19618335.905   103095054.329        -490.591          50.000  
G15  20506376.500   107761732.768       -1635.362          49.000  
G20  20566920.885   108079902.070       -2983.174          46.000  
G18  20980312.626   110252281.737        1484.716          48.000  
G13  22546434.087   118482318.192       -2778.834          36.000  
C 3  37431591.148   194916101.169        -509.308          41.000  
G12  22334287.375   117367473.378        2941.000          47.000  
G10  22982339.584   120773021.015        2744.574          43.000  
C 6  35997388.682   187447794.825         -18.760          42.000  
C 1  36820143.693   191732107.049        -488.987          43.000  
C 4  37076093.829   193064913.389        -514.915          43.000  
G 5  24455378.006   128513884.924       -4078.963          35.000  
J 1  37220882.022   195597067.350          86.442          44.000  
J 2  36961976.283   194236485.797       -1163.597          46.000  
C 9  37666783.847   196140798.063         105.970          42.000  
C 7  38258833.264   199223743.946         764.124          40.000  
G25  24941687.236   131069268.833        3278.823          26.000  
G21  22818790.821   119913546.634       -2006.501          44.000  
> 2017 10 10 10 24 15.1980000  0 18                     
G24  19618354.664   103095152.444        -490.248          50.000  
G15  20506438.701   107762059.840       -1635.060          49.000  
G20  20567034.390   108080498.728       -2982.991          46.000  
G18  20980256.105   110251984.812        1484.884          48.000  
G13  22546539.792   118482873.941       -2778.443          36.000  
C 3  37431610.718   194916203.005        -508.778          41.000  
G12  22334175.345   117366885.169        2941.315          47.000  
G10  22982235.031   120772472.115        2744.802          43.000  
C 6  35997389.424   187447798.579         -18.036          42.000  
C 1  36820162.505   191732204.815        -488.700          43.000  
C 4  37076113.547   193065016.311        -514.244          43.000  
G 5  24455533.305   128514700.720       -4078.413          35.000  
J 1  37220878.768   195597050.055          86.857          44.000  
J 2  36962020.615   194236718.508       -1163.157          46.000  
C 9  37666779.773   196140776.882         106.355          42.000  
C 7  38258803.930   199223591.078         764.825          40.000  
G25  24941561.716   131068613.081        3278.743          26.000  
G21  22818867.201   119913947.918       -2006.107          44.000  
> 2017 10 10 10 24 15.3980000  0 18                     
G24  19618373.493   103095250.630        -490.994          50.000  
G15  20506501.025   107762386.957       -1635.769          49.000  
G20  20567148.009   108081095.421       -2983.631          46.000  
G18  20980199.575   110251687.918        1484.127          48.000  
G13  22546645.505   118483429.729       -2779.238          36.000  
C 3  37431630.201   194916304.874        -509.175          41.000  
G12  22334063.437   117366296.997        2940.678          47.000  
G10  22982130.574   120771923.252        2744.114          43.000  
C 6  35997390.148   187447802.399         -19.074          42.000  
C 1  36820181.246   191732302.628        -489.165          43.000  
C 4  37076133.327   193065119.279        -514.886          43.000  
G 5  24455688.559   128515516.568       -4079.461          35.000  
J 1  37220875.487   195597032.794          86.227          44.000  
J 2  36962064.808   194236951.267       -1163.994          46.000  
C 9  37666775.733   196140755.740         105.698          42.000  
C 7  38258774.588   199223438.268         763.904          40.000  
G25  24941437.157   131067957.270        3279.002          26.000  
G21  22818943.633   119914349.266       -2007.097          44.000  
> 2017 10 10 10 24 15.5980000  0 18                     
G24  19618392.173   103095348.824        -491.049          50.000  
G15  20506563.322   107762714.066       -1635.536          49.000  
G20  20567261.566   108081692.128       -2983.418          46.000  
G18  20980143.054   110251391.029        1484.458          48.000  
G13  22546751.201   118483985.506       -2778.750          36.000  
C 3  37431649.798   194916406.748        -509.081          41.000  
G12  22333951.607   117365708.824        2940.930          47.000  
G10  22982026.178   120771374.383        2744.422          43.000  
C 6  35997390.846   187447806.179         -18.898          42.000  
C 1  36820200.093   191732400.425        -488.799          43.000  
C 4  37076153.177   193065222.246        -514.749          43.000  
G 5  24455843.788   128516332.375       -4078.906          35.000  
J 1  37220872.067   195597015.523          86.497          44.000  
J 2  36962109.070   194237183.993       -1163.617          46.000  
C 9  37666771.676   196140734.580         105.936          42.000  
C 7  38258745.298   199223285.439         764.178          40.000  
G25  24941311.637   131067301.532        3278.894          26.000  
G21  22819019.977   119914750.599       -2006.721          44.000  
> 2017 10 10 10 24 15.7980000  0 18                     
G24  19618410.889   103095447.043        -491.202          50.000  
G15  20506625.610   107763041.201       -1635.699          49.000  
G20  20567375.123   108082288.877       -2983.911          46.000  
G18  20980086.646   110251094.164        1484.226          48.000  
G13  22546856.923   118484541.322       -2779.360          36.000  
C 3  37431669.421   194916508.624        -509.321          41.000  
G12  22333839.672   117365120.666        2940.802          47.000  
G10  22981921.712   120770825.551        2744.073          43.000  
C 6  35997391.439   187447809.977         -18.970          42.000  
C 1  36820218.834   191732498.238        -489.208          43.000  
C 4  37076172.904   193065325.214        -514.907          43.000  
G 5  24455999.025   128517148.231       -4079.455          35.000  
J 1  37220868.621   195596998.273          86.267          44.000  
J 2  36962153.184   194237416.752       -1163.835          46.000  
C 9  37666767.488   196140713.432         105.756          42.000  
C 7  38258715.868   199223132.619         764.337          40.000  
G25  24941187.304   131066645.749        3279.028          26.000  
G21  22819096.278   119915151.961       -2006.775          44.000  
> 2017 10 10 10 24 15.9980000  0 18                     
G24  19618429.630   103095545.265        -491.147          50.000  
G15  20506687.873   107763368.325       -1635.605          49.000  
G20  20567488.742   108082885.598       -2983.690          46.000  
G18  20980030.124   110250797.297        1484.449          48.000  
G13  22546962.654   118485097.089       -2778.793          36.000  
C 3  37431688.886   194916610.489        -509.465          41.000  
G12  22333727.729   117364532.504        2940.892          47.000  
G10  22981817.316   120770276.678        2744.341          43.000  
C 6  35997392.190   187447813.747         -18.778          42.000  
C 1  36820237.532   191732596.020        -488.998          43.000  
C 4  37076192.701   193065428.152        -514.576          43.000  
G 5  24456154.271   128517964.044       -4079.305          35.000  
J 1  37220865.410   195596980.999          86.323          44.000  
J 2  36962197.429   194237649.479       -1163.583          46.000  
C 9  37666763.518   196140692.259         106.046          42.000  
C 7  38258686.508   199222979.803         763.947          40.000  
G25  24941063.739   131065989.970        3278.932          26.000  
G21  22819172.728   119915553.326       -2006.739          44.000  
> 2017 10 10 10 24 16.1980000  0 18                     
G24  19618448.380   103095643.520        -491.273          50.000  
G15  20506750.179   107763695.470       -1635.606          49.000  
G20  20567602.194   108083482.359       -2983.660          46.000  
G18  20979973.621   110250500.468        1484.209          48.000  
G13  22547068.394   118485652.885       -2779.018          35.000  
C 3  37431708.457   194916712.345        -509.165          41.000  
G12  22333615.830   117363944.358        2940.808          47.000  
G10  22981712.868   120769727.840        2744.411          43.000  
C 6  35997392.966   187447817.537         -18.863          42.000  
C 1  36820256.352   191732693.817        -488.837          43.000  
C 4  37076212.438   193065531.115        -514.604          43.000  
G 5  24456309.482   128518779.884       -4079.397          35.000  
J 1  37220862.225   195596963.728          86.464          44.000  
J 2  36962241.692   194237882.221       -1163.544          46.000  
C 9  37666759.600   196140671.097         106.065          42.000  
C 7  38258657.122   199222826.980         764.056          40.000  
G25  24940939.590   131065334.191        3278.966          26.000  
G21  22819249.081   119915954.714       -2006.854          44.000  
> 2017 10 10 10 24 16.3980000  0 18                     
G24  19618467.096   103095741.760        -491.075          50.000  
G15  20506812.406   107764022.591       -1635.484          49.000  
G20  20567715.813   108084079.107       -2983.575          46.000  
G18  20979917.169   110250203.603        1484.403          48.000  
G13  22547174.116   118486208.647       -2778.648          36.000  
C 3  37431728.106   194916814.184        -509.048          41.000  
G12  22333503.948   117363356.185        2941.037          47.000  
G10  22981608.394   120769178.972        2744.508          43.000  
C 6  35997393.804   187447821.296         -18.913          42.000  
C 1  36820275.050   191732791.593        -488.819          43.000  
C 4  37076232.148   193065634.037        -514.391          43.000  
G 5  24456464.727   128519595.683       -4078.631          35.000  
J 1  37220859.075   195596946.434          86.629          44.000  
J 2  36962285.928   194238114.939       -1163.444          46.000  
C 9  37666755.447   196140649.886         106.340          42.000  
C 7  38258627.867   199222674.122         764.356          40.000  
G25  24940814.690   131064678.326        3279.557          26.000  
G21  22819325.487   119916356.082       -2006.793          44.000  
> 2017 10 10 10 24 16.5980000  0 18                     
G24  19618485.811   103095840.047        -491.194          50.000  
G15  20506874.529   107764349.746       -1635.643          49.000  
G20  20567829.457   108084675.903       -2983.913          46.000  
G18  20979860.709   110249906.795        1483.988          48.000  
G13  22547279.899   118486764.434       -2778.885          36.000  
C 3  37431747.763   194916916.043        -509.363          41.000  
G12  22333392.144   117362768.045        2940.824          47.000  
G10  22981503.849   120768630.142        2744.288          43.000  
C 6  35997394.598   187447825.054         -18.673          42.000  
C 1  36820293.870   191732889.367        -488.736          43.000  
C 4  37076251.989   193065736.983        -514.445          43.000  
G 5  24456619.973   128520411.528       -4079.230          35.000  
J 1  37220855.777   195596929.166          86.390          44.000  
J 2  36962330.112   194238347.681       -1163.666          46.000  
C 9  37666751.320   196140628.728         106.015          42.000  
C 7  38258598.480   199222521.314         764.209          40.000  
G25  24940691.779   131064022.567        3278.482          26.000  
G21  22819401.858   119916757.485       -2006.977          44.000  
> 2017 10 10 10 24 16.7980000  0 18                     
G24  19618504.588   103095938.325        -491.387          50.000  
G15  20506936.730   107764676.876       -1635.661          49.000  
G20  20567943.067   108085272.670       -2983.957          46.000  
G18  20979804.135   110249609.952        1484.156          48.000  
G13  22547385.744   118487320.189       -2778.542          36.000  
C 3  37431767.238   194917017.851        -509.083          41.000  
G12  22333280.271   117362179.875        2940.817          47.000  
G10  22981399.340   120768081.281        2744.354          43.000  
C 6  35997395.139   187447828.798         -18.712          42.000  
C 1  36820312.603   191732987.134        -488.970          43.000  
C 4  37076271.681   193065839.902        -514.667          43.000  
G 5  24456775.219   128521227.303       -4079.188          35.000  
J 1  37220852.444   195596911.855          86.547          44.000  
J 2  36962374.296   194238580.377       -1163.503          46.000  
C 9  37666747.150   196140607.513         106.073          42.000  
C 7  38258569.094   199222368.460         764.203          40.000  
G25  24940566.574   131063366.685        3279.571          26.000  
G21  22819478.124   119917158.874       -2006.983          44.000  
> 2017 10 10 10 24 16.9980000  0 18                     
G24  19618523.198   103096036.610        -491.537          50.000  
G15  20506998.932   107765004.006       -1635.734          49.000  
G20  20568056.528   108085869.457       -2984.046          46.000  
G18  20979747.658   110249313.137        1483.804          48.000  
G13  22547491.413   118487875.968       -2779.043          36.000  
C 3  37431786.991   194917119.666        -509.029          41.000  
G12  22333168.284   117361591.714        2940.644          47.000  
G10  22981294.901   120767532.413        2744.224          43.000  
C 6  35997395.941   187447832.520         -18.587          42.000  
C 1  36820331.353   191733084.862        -488.687          43.000  
C 4  37076291.452   193065942.805        -514.801          43.000  
G 5  24456930.587   128522043.110       -4078.986          35.000  
J 1  37220849.190   195596894.543          86.426          44.000  
J 2  36962418.541   194238813.076       -1163.464          46.000  
C 9  37666742.935   196140586.290         105.997          42.000  
C 7  38258539.673   199222215.591         764.117          40.000  
G25  24940442.311   131062710.872        3279.076          26.000  
G21  22819554.573   119917560.263       -2007.088          44.000  
> 2017 10 10 10 24 17.1980000  0 18                     
G24  19618541.914   103096134.931        -491.458          50.000  
G15  20507061.177   107765331.162       -1635.522          49.000  
G20  20568170.164   108086466.269       -2983.830          46.000  
G18  20979691.224   110249016.317        1484.371          48.000  
G13  22547597.144   118488431.733       -2778.622          36.000  
C 3  37431806.571   194917221.487        -509.076          41.000  
G12  22333056.376   117361003.561        2940.968          47.000  
G10  22981190.417   120766983.570        2744.547          43.000  
C 6  35997396.770   187447836.271         -18.509          42.000  
C 1  36820350.147   191733182.621        -488.395          43.000  
C 4  37076311.250   193066045.720        -514.342          43.000  
G 5  24457085.789   128522858.905       -4078.767          35.000  
J 1  37220845.953   195596877.243          86.789          44.000  
J 2  36962462.882   194239045.789       -1163.225          46.000  
C 9  37666738.861   196140565.090         106.262          42.000  
C 7  38258510.313   199222062.736         764.838          40.000  
G25  24940319.043   131062054.983        3279.551          26.000  
G21  22819630.962   119917961.670       -2006.760          44.000  
> 2017 10 10 10 24 17.3980000  0 18                     
G24  19618560.507   103096233.215        -491.688          50.000  
G15  20507123.360   107765658.271       -1635.728          49.000  
G20  20568283.774   108087063.054       -2984.293          46.000  
G18  20979634.790   110248719.487        1483.925          48.000  
G13  22547702.892   118488987.456       -2778.828          36.000  
C 3  37431826.045   194917323.251        -508.996          41.000  
G12  22332944.616   117360415.367        2940.731          47.000  
G10  22981085.943   120766434.686        2744.193          43.000  
C 6  35997397.381   187447839.943         -18.507          42.000  
C 1  36820368.862   191733280.323        -488.893          43.000  
C 4  37076330.881   193066148.585        -514.655          43.000  
G 5  24457241.114   128523674.649       -4078.198          35.000  
J 1  37220842.628   195596859.897          86.501          44.000  
J 2  36962507.014   194239278.457       -1163.498          46.000  
C 9  37666734.838   196140543.818         105.971          42.000  
C 7  38258480.848   199221909.847         764.356          40.000  
G25  24940196.141   131061399.091        3279.349          26.000  
G21  22819707.472   119918363.058       -2007.132          44.000  
> 2017 10 10 10 24 17.5980000  0 18                     
G24  19618579.370   103096331.511        -491.412          50.000  
G15  20507185.501   107765985.386       -1635.411          49.000  
G20  20568397.558   108087659.832       -2983.808          46.000  
G18  20979578.190   110248422.659        1484.111          48.000  
G13  22547808.650   118489543.182       -2778.350          36.000  
C 3  37431845.572   194917425.012        -508.519          41.000  
G12  22332832.681   117359827.171        2941.071          47.000  
G10  22980981.530   120765885.795        2744.489          43.000  
C 6  35997398.158   187447843.623         -18.304          42.000  
C 1  36820387.752   191733378.016        -488.447          43.000  
C 4  37076350.556   193066251.434        -514.154          43.000  
G 5  24457396.342   128524490.443       -4078.719          35.000  
J 1  37220839.208   195596842.538          86.820          44.000  
J 2  36962551.381   194239511.111       -1163.208          46.000  
C 9  37666730.755   196140522.531         106.470          42.000  
C 7  38258451.637   199221756.960         764.471          40.000  
G25  24940070.194   131060743.205        3279.416          26.000  
G21  22819783.826   119918764.449       -2006.927          44.000  
> 2017 10 10 10 24 17.7980000  0 18                     
G24  19618598.025   103096429.843        -491.752          50.000  
G15  20507247.667   107766312.523       -1635.638          49.000  
G20  20568511.080   108088256.656       -2984.143          46.000  
G18  20979521.782   110248125.850        1483.990          48.000  
G13  22547914.380   118490098.922       -2778.739          36.000  
C 3  37431865.116   194917526.797        -509.047          41.000  
G12  22332720.747   117359238.998        2940.892          47.000  
G10  22980877.081   120765336.919        2744.291          43.000  
C 6  35997398.864   187447847.320         -18.464          42.000  
C 1  36820406.502   191733475.721        -488.652          43.000  
C 4  37076370.388   193066354.302        -514.189          43.000  
G 5  24457551.518   128525306.209       -4078.942          35.000  
J 1  37220835.919   195596825.190          86.753          44.000  
J 2  36962595.626   194239743.782       -1163.383          46.000  
C 9  37666726.733   196140501.262         106.221          42.000  
C 7  38258422.146   199221604.061         764.581          40.000  
G25  24939945.425   131060087.233        3280.053          26.000  
G21  22819860.144   119919165.852       -2007.211          44.000  
> 2017 10 10 10 24 17.9980000  0 18                     
G24  19618616.775   103096528.189        -491.737          50.000  
G15  20507309.929   107766639.659       -1635.679          49.000  
G20  20568624.637   108088853.485       -2984.076          46.000  
G18  20979465.339   110247829.056        1484.050          48.000  
G13  22548020.146   118490654.642       -2778.584          36.000  
C 3  37431884.704   194917628.548        -508.638          41.000  
G12  22332608.909   117358650.826        2940.865          47.000  
G10  22980772.659   120764788.051        2744.403          43.000  
C 6  35997399.711   187447851.008         -18.436          42.000  
C 1  36820425.418   191733573.419        -488.352          43.000  
C 4  37076390.081   193066457.164        -514.193          43.000  
G 5  24457706.834   128526121.966       -4078.633          35.000  
J 1  37220832.516   195596807.843          86.886          44.000  
J 2  36962639.897   194239976.442       -1163.291          46.000  
C 9  37666722.702   196140479.974         106.711          42.000  
C 7  38258392.847   199221451.192         764.313          40.000  
G25  24939821.057   131059431.368        3279.268          25.000  
G21  22819936.620   119919567.270       -2007.119          44.000  
> 2017 10 10 10 24 18.1980000  0 18                     
G24  19618635.394   103096626.561        -491.939          50.000  
G15  20507372.279   107766966.820       -1635.837          49.000  
G20  20568738.343   108089450.352       -2984.546          47.000  
G18  20979408.844   110247532.288        1483.666          48.000  
G13  22548125.929   118491210.412       -2779.040          36.000  
C 3  37431904.274   194917730.339        -509.178          41.000  
G12  22332497.026   117358062.674        2940.726          47.000  
G10  22980668.193   120764239.197        2744.330          43.000  
C 6  35997400.574   187447854.687         -18.433          42.000  
C 1  36820444.326   191733671.139        -488.867          43.000  
C 4  37076409.835   193066560.036        -514.274          43.000  
G 5  24457862.080   128526937.767       -4079.142          35.000  
J 1  37220829.183   195596790.503          86.666          44.000  
J 2  36962684.072   194240209.114       -1163.357          46.000  
C 9  37666718.531   196140458.715         106.367          42.000  
C 7  38258363.513   199221298.303         764.520          40.000  
G25  24939697.318   131058775.418        3279.824          25.000  
G21  22820012.991   119919968.718       -2007.270          45.000  
> 2017 10 10 10 24 18.3980000  0 18                     
G24  19618654.084   103096724.975        -492.016          50.000  
G15  20507434.454   107767294.011       -1636.044          49.000  
G20  20568851.857   108090047.243       -2984.557          47.000  
G18  20979352.349   110247235.553        1483.646          48.000  
G13  22548231.634   118491766.183       -2779.051          36.000  
C 3  37431923.784   194917832.119        -508.948          41.000  
G12  22332385.110   117357474.546        2940.629          47.000  
G10  22980563.789   120763690.370        2744.294          43.000  
C 6  35997401.395   187447858.404         -18.398          42.000  
C 1  36820463.067   191733768.834        -488.259          43.000  
C 4  37076429.641   193066662.920        -514.238          43.000  
G 5  24458017.308   128527753.557       -4078.790          35.000  
J 1  37220825.902   195596773.192          86.583          44.000  
J 2  36962728.440   194240441.811       -1163.416          46.000  
C 9  37666714.518   196140437.453         106.398          42.000  
C 7  38258334.363   199221145.453         764.429          40.000  
G25  24939572.487   131058119.493        3279.729          25.000  
G21  22820089.440   119920370.195       -2007.633          44.000  
> 2017 10 10 10 24 18.5980000  0 18                     
G24  19618672.790   103096823.396        -492.129          50.000  
G15  20507496.786   107767621.195       -1636.084          49.000  
G20  20568965.423   108090644.138       -2984.597          47.000  
G18  20979295.898   110246938.817        1483.633          48.000  
G13  22548337.304   118492321.946       -2779.028          36.000  
C 3  37431943.398   194917933.905        -508.975          41.000  
G12  22332273.236   117356886.413        2940.685          47.000  
G10  22980459.436   120763141.535        2744.227          43.000  
C 6  35997402.145   187447862.102         -18.763          42.000  
C 1  36820481.791   191733866.568        -488.494          43.000  
C 4  37076449.351   193066765.787        -514.206          43.000  
G 5  24458172.502   128528569.355       -4078.765          35.000  
J 1  37220822.700   195596755.856          86.561          44.000  
J 2  36962772.772   194240674.495       -1163.379          46.000  
C 9  37666710.391   196140416.191         106.348          42.000  
C 7  38258304.985   199220992.593         764.050          40.000  
G25  24939448.425   131057463.599        3279.522          25.000  
G21  22820165.933   119920771.660       -2007.442          44.000  
